[
  {
    "name": "Ealing Film Studios",
    "url": "https://www.doctorwholocations.net/locations/ealingfilmstudios",
    "lat": 51.509444,
    "lng": -0.306111,
    "serials": [
      "The Chase [10 May 1965] (Stage 3/Backlot (garage)): Ian and Barbara arrive back in London.",
      "The War Machines [25 May 1966]"
    ]
  },
  {
    "name": "Lime Grove Studios",
    "url": "https://www.doctorwholocations.net/locations/limegrovestudios",
    "lat": 51.503611,
    "lng": -0.228056,
    "serials": []
  },
  {
    "name": "BBC Television Centre",
    "url": "https://www.doctorwholocations.net/locations/bbctelevisioncentre",
    "lat": 51.509722,
    "lng": -0.225833,
    "serials": [
      "The Seeds of Doom [16 Dec 1975] (Entrance): Outside the World Ecology Bureau",
      "An Adventure in Space and Time"
    ]
  },
  {
    "name": "Isle of Wight Farm",
    "url": "https://www.doctorwholocations.net/locations/isleofwightfarm",
    "lat": 51.584722,
    "lng": -0.538056,
    "serials": [
      "The Reign of Terror [15 Jun 1964]: The Doctor makes his way across the French countryside."
    ]
  },
  {
    "name": "White Plains",
    "url": "https://www.doctorwholocations.net/locations/whiteplains",
    "lat": 51.585556,
    "lng": -0.511389,
    "serials": [
      "The Reign of Terror [15 Jun 1964]: The Doctor walks down a French boulevard."
    ]
  },
  {
    "name": "Royal Albert Hall",
    "url": "https://www.doctorwholocations.net/locations/royalalberthall",
    "lat": 51.501111,
    "lng": -0.178056,
    "serials": [
      "The Dalek Invasion of Earth [23 Aug 1964]: Barbara, Tyler and Dortmun escape through London."
    ]
  },
  {
    "name": "Albert Memorial",
    "url": "https://www.doctorwholocations.net/locations/albertmemorial",
    "lat": 51.501944,
    "lng": -0.1775,
    "serials": [
      "The Dalek Invasion of Earth [23 Aug 1964]: Barbara, Tyler and Dortmun escape through London."
    ]
  },
  {
    "name": "Whitehall / Parliament Street",
    "url": "https://www.doctorwholocations.net/locations/whitehall",
    "lat": 51.504167,
    "lng": -0.126111,
    "serials": [
      "The Dalek Invasion of Earth [23 Aug 1964]: Barbara, Tyler and Dortmun escape through London.",
      "The Seeds of Death [related, still]: Example of a T-Mat cubicle seen on promotional film watched by\nthe Doctor, Jamie and Zoe.",
      "Invasion of the Dinosaurs [2 Sep 1973]: A seemingly deserted London",
      "World War Three [27 Jul 2004]: Harriet Jones's address to cameras",
      "Children of Earth: Day One [3 Oct 2008]: Driving to work"
    ]
  },
  {
    "name": "Trafalgar Square",
    "url": "https://www.doctorwholocations.net/locations/trafalgarsquare",
    "lat": 51.507778,
    "lng": -0.128056,
    "serials": [
      "The Dalek Invasion of Earth [23 Aug 1964]: Barbara, Tyler and Dortmun escape through London.",
      "The Chase [6 May 1965]: Ian and Barbara enjoy being back in London.",
      "The Web of Fear [15 Jan 1968]: Still used by Captain Knight during his Yeti briefing",
      "The Seeds of Death [related, still]: Example of a T-Mat cubicle seen on promotional film watched by\nthe Doctor, Jamie and Zoe.",
      "Invasion of the Dinosaurs [2 Sep 1973]: A seemingly deserted London",
      "Rose [26 Jul 2004]: Rose meets her boyfriend Mickey for lunch.",
      "The Christmas Invasion [28 Jul 2005]: The Sycorax spaceship arrives over London",
      "The Day of The Doctor"
    ]
  },
  {
    "name": "Westminster Bridge",
    "url": "https://www.doctorwholocations.net/locations/westminsterbridge",
    "lat": 51.500556,
    "lng": -0.121667,
    "serials": [
      "The Dalek Invasion of Earth [23 Aug 1964]: Barbara, Tyler and Dortmun escape through London.",
      "The Seeds of Death [related, still]: Example of a T-Mat cubicle seen on promotional film watched by\nthe Doctor, Jamie and Zoe.",
      "Invasion of the Dinosaurs [2 Sep 1973]: A seemingly deserted London",
      "Terror of the Zygons [unknown]: The Skarasen passes by the Houses of Parliament",
      "Rose [26 Jul 2004]: The Doctor and Rose run across the bridge to the London Eye.",
      "Aliens of London [27 Jul 2004]: News reports on the crash",
      "World War Three [27 Jul 2004]: News report",
      "Army of Ghosts [related, unknown]: Cybermen materialise in London.",
      "The Bells of Saint John [15,16 Oct 2012]: On the motorcycle",
      "An Adventure in Space and Time"
    ]
  },
  {
    "name": "Albert Embankment",
    "url": "https://www.doctorwholocations.net/locations/albertembankment",
    "lat": 51.498056,
    "lng": -0.120278,
    "serials": [
      "The Chase [6 May 1965] (Westminster Bridge): Ian and Barbara enjoy being back in London.",
      "The Dalek Invasion of Earth [23 Aug 1964] (Westminster Bridge): Barbara, Tyler and Dortmun escape through London.",
      "Invasion of the Dinosaurs [2 Sep 1973]: A seemingly deserted London",
      "Rise of the Cybermen [1 Nov 2005] (Lambeth Pier): The TARDIS materialises on an alternative Earth ...",
      "The Age of Steel [1 Nov 2005] (Lambeth Pier): The TARDIS departs, leaving Mickey on alternative Earth."
    ]
  },
  {
    "name": "Third Way",
    "url": "https://www.doctorwholocations.net/locations/thirdway",
    "lat": 51.557222,
    "lng": -0.271111,
    "serials": [
      "The Dalek Invasion of Earth [23 Aug 1964]: Barbara and Tyler attempt to evade the Daleks in a truck."
    ]
  },
  {
    "name": "Engineer's Way",
    "url": "https://www.doctorwholocations.net/locations/engineersway",
    "lat": 51.558611,
    "lng": -0.283333,
    "serials": [
      "The Dalek Invasion of Earth [23 Aug 1964]: Dortmun's last stand against the Daleks."
    ]
  },
  {
    "name": "Wood Lane Central Line Station",
    "url": "https://www.doctorwholocations.net/locations/woodlanestation",
    "lat": 51.508889,
    "lng": -0.224167,
    "serials": [
      "The Dalek Invasion of Earth [25 Aug 1964]: Barbara is led rebels' safe house"
    ]
  },
  {
    "name": "St. Katharine's Dock",
    "url": "https://www.doctorwholocations.net/locations/stkatharinesdock",
    "lat": 51.506944,
    "lng": -0.070833,
    "serials": [
      "The Dalek Invasion of Earth [27 Aug 1964] ('A' warehouse): The Doctor and Ian investigate warehouses.",
      "The Talons of Weng-Chiang [17 Dec 1976]"
    ]
  },
  {
    "name": "Irongate/St. Katharine's Wharves",
    "url": "https://www.doctorwholocations.net/locations/irongatewharf",
    "lat": 51.506111,
    "lng": -0.073889,
    "serials": [
      "The Dalek Invasion of Earth [27 Aug 1964]: Robomen on patrol."
    ]
  },
  {
    "name": "Butler's Wharf",
    "url": "https://www.doctorwholocations.net/locations/butlerswharf",
    "lat": 51.503611,
    "lng": -0.073611,
    "serials": [
      "The Dalek Invasion of Earth [27 Aug 1964]: The TARDIS travellers look across the Thames.",
      "Resurrection of the Daleks [12 Sep 1983]"
    ]
  },
  {
    "name": "Kew Railway Bridge",
    "url": "https://www.doctorwholocations.net/locations/kewrailwaybridge",
    "lat": 51.483333,
    "lng": -0.279722,
    "serials": [
      "The Dalek Invasion of Earth [27 Aug 1964]: The TARDIS materialises underneath a bridge by the Thames"
    ]
  },
  {
    "name": "Queen's Wharf",
    "url": "https://www.doctorwholocations.net/locations/queenswharf",
    "lat": 51.488611,
    "lng": -0.229167,
    "serials": [
      "The Dalek Invasion of Earth [27 Aug 1964]: A Dalek emerges from the Thames.",
      "Terror of the Autons [17 Sep 1970]: The Master's bomb explodes outside UNIT"
    ]
  },
  {
    "name": "John's Hole Quarry",
    "url": "https://www.doctorwholocations.net/locations/johnsholequarry",
    "lat": 51.442778,
    "lng": 0.257222,
    "serials": [
      "The Dalek Invasion of Earth [28 Aug 1964]: Dalek mine operations."
    ]
  },
  {
    "name": "Riverside Studios",
    "url": "https://www.doctorwholocations.net/locations/riversidestudios",
    "lat": 51.488333,
    "lng": -0.2275,
    "serials": []
  },
  {
    "name": "Camber Sands",
    "url": "https://www.doctorwholocations.net/locations/cambersands",
    "lat": 50.933333,
    "lng": 0.785,
    "serials": [
      "The Chase [9 Apr 1965]: Aridius.",
      "The Trial of a Time Lord (\"The Ultimate Foe\") [23-24 Jun 1986]: The Doctor finds himself on a \"beach\" in the Matrix."
    ]
  },
  {
    "name": "Bayswater Road",
    "url": "https://www.doctorwholocations.net/locations/bayswaterroad",
    "lat": 51.51,
    "lng": -0.187778,
    "serials": [
      "The Chase [6 May 1965]: Ian and Barbara enjoy being back in London."
    ]
  },
  {
    "name": "Kensington Gardens",
    "url": "https://www.doctorwholocations.net/locations/kensingtongardens",
    "lat": 51.509444,
    "lng": -0.186944,
    "serials": [
      "The Chase [6 May 1965]: Ian and Barbara enjoy being back in London."
    ]
  },
  {
    "name": "Regent Street",
    "url": "https://www.doctorwholocations.net/locations/regentstreet",
    "lat": 51.509722,
    "lng": -0.135833,
    "serials": [
      "The Chase [6 May 1965]: Ian and Barbara enjoy being back in London."
    ]
  },
  {
    "name": "Frensham Common",
    "url": "https://www.doctorwholocations.net/locations/frenshamcommon",
    "lat": 51.160556,
    "lng": -0.785833,
    "serials": [
      "The Myth Makers [27,30,31 Aug, 1,2 Sep 1965]",
      "The Highlanders [14,15,21 Nov 1966]"
    ]
  },
  {
    "name": "Ham Polo Club",
    "url": "https://www.doctorwholocations.net/locations/hampoloclub",
    "lat": 51.445278,
    "lng": -0.308889,
    "serials": [
      "The Myth Makers"
    ]
  },
  {
    "name": "Hammersmith Park",
    "url": "https://www.doctorwholocations.net/locations/hammersmithpark",
    "lat": 51.509722,
    "lng": -0.227778,
    "serials": [
      "The Daleks' Master Plan [25 Oct 1965]"
    ]
  },
  {
    "name": "Windmill Road",
    "url": "https://www.doctorwholocations.net/locations/windmillroad",
    "lat": 51.436944,
    "lng": -0.228889,
    "serials": [
      "The Massacre [7 Jan 1966]: Dodo runs across a common to the TARDIS."
    ]
  },
  {
    "name": "Shire Lane Quarry",
    "url": "https://www.doctorwholocations.net/locations/shirelanequarry",
    "lat": 51.619444,
    "lng": -0.53,
    "serials": [
      "The Savages [29 Apr 1966]: Exorse captures Nanina"
    ]
  },
  {
    "name": "Callow Hill Sandpit",
    "url": "https://www.doctorwholocations.net/locations/callowhillsandpit",
    "lat": 51.415556,
    "lng": -0.564722,
    "serials": [
      "The Savages [1 May 1966]: The planet of the Elders/Savages."
    ]
  },
  {
    "name": "Bedford Square",
    "url": "https://www.doctorwholocations.net/locations/bedfordsquare",
    "lat": 51.518333,
    "lng": -0.130556,
    "serials": [
      "The War Machines [22 May 1966]"
    ]
  },
  {
    "name": "Conway Street",
    "url": "https://www.doctorwholocations.net/locations/conwaystreet",
    "lat": 51.522222,
    "lng": -0.14,
    "serials": [
      "The War Machines [22 May 1966]"
    ]
  },
  {
    "name": "Maple Street",
    "url": "https://www.doctorwholocations.net/locations/maplestreet",
    "lat": 51.521944,
    "lng": -0.138889,
    "serials": [
      "The War Machines [22 May 1966]"
    ]
  },
  {
    "name": "Charlotte Place",
    "url": "https://www.doctorwholocations.net/locations/charlotteplace",
    "lat": 51.518611,
    "lng": -0.135833,
    "serials": [
      "The War Machines [22 May 1966]"
    ]
  },
  {
    "name": "Gresse Street",
    "url": "https://www.doctorwholocations.net/locations/gressestreet",
    "lat": 51.516944,
    "lng": -0.132222,
    "serials": [
      "The War Machines [22 May 1966]"
    ]
  },
  {
    "name": "Berners Mews",
    "url": "https://www.doctorwholocations.net/locations/bernersmews",
    "lat": 51.516944,
    "lng": -0.135833,
    "serials": [
      "The War Machines [22 May 1966]"
    ]
  },
  {
    "name": "Covent Garden Market",
    "url": "https://www.doctorwholocations.net/locations/coventgardenmarket",
    "lat": 51.511944,
    "lng": -0.122778,
    "serials": [
      "The War Machines [26 May 1966]",
      "Invasion of the Dinosaurs [2 Sep 1973]: A seemingly deserted London"
    ]
  },
  {
    "name": "Royal Opera House",
    "url": "https://www.doctorwholocations.net/locations/royaloperahouse",
    "lat": 51.513056,
    "lng": -0.121944,
    "serials": [
      "The War Machines [26 May 1966]"
    ]
  },
  {
    "name": "Cornwall Gardens Walk",
    "url": "https://www.doctorwholocations.net/locations/cornwallgardenswalk",
    "lat": 51.496389,
    "lng": -0.188889,
    "serials": [
      "The Mind of Evil [3 Nov 1970]",
      "The War Machines [26 May 1966]"
    ]
  },
  {
    "name": "Cornwall Gardens",
    "url": "https://www.doctorwholocations.net/locations/cornwallgardens",
    "lat": 51.496667,
    "lng": -0.185833,
    "serials": [
      "The War Machines [26 May 1966]",
      "The Mind of Evil [2-3 Nov 1970]"
    ]
  },
  {
    "name": "Nanjizal Bay",
    "url": "https://www.doctorwholocations.net/locations/nanjizalbay",
    "lat": 50.054167,
    "lng": -5.693333,
    "serials": [
      "The Smugglers [19-20 Jun 1966]: The beach"
    ]
  },
  {
    "name": "Bosistow Cliffs",
    "url": "https://www.doctorwholocations.net/locations/bosistowcliffs",
    "lat": 50.053333,
    "lng": -5.691944,
    "serials": [
      "The Smugglers [20 Jun 1966]"
    ]
  },
  {
    "name": "St Grada Church",
    "url": "https://www.doctorwholocations.net/locations/stgradachurch",
    "lat": 49.984444,
    "lng": -5.194167,
    "serials": [
      "The Smugglers [21 Jun 1966]: The village church"
    ]
  },
  {
    "name": "Church Cove",
    "url": "https://www.doctorwholocations.net/locations/churchcove",
    "lat": 49.971111,
    "lng": -5.1875,
    "serials": [
      "The Smugglers [21 Jun 1966]: The local village"
    ]
  },
  {
    "name": "Trenethick Barton",
    "url": "https://www.doctorwholocations.net/locations/trenethickbarton",
    "lat": 50.116111,
    "lng": -5.262778,
    "serials": [
      "The Smugglers [21 Jun 1966]: The Squire's Estate"
    ]
  },
  {
    "name": "Trethewey Farm",
    "url": "https://www.doctorwholocations.net/locations/tretheweyfarm",
    "lat": 50.055,
    "lng": -5.658056,
    "serials": [
      "The Smugglers [22 Jun 1966]: The village Inn"
    ]
  },
  {
    "name": "Winspit Quarry",
    "url": "https://www.doctorwholocations.net/locations/winspitquarry",
    "lat": 50.583611,
    "lng": -2.034444,
    "serials": [
      "Destiny of the Daleks [11,14-15 Jun 1979]",
      "The Underwater Menace [12-13 Dec 1966]"
    ]
  },
  {
    "name": "Winspit Beach",
    "url": "https://www.doctorwholocations.net/locations/winspitbeach",
    "lat": 50.583889,
    "lng": -2.033611,
    "serials": [
      "The Underwater Menace [13 Dec 1966]"
    ]
  },
  {
    "name": "Associated Portland Cement Company Quarry",
    "url": "https://www.doctorwholocations.net/locations/apccquarry",
    "lat": 51.900556,
    "lng": -0.535833,
    "serials": [
      "The Macra Terror [15 Feb 1967]"
    ]
  },
  {
    "name": "Gatwick Airport",
    "url": "https://www.doctorwholocations.net/locations/gatwickairport",
    "lat": 51.155278,
    "lng": -0.173889,
    "serials": [
      "The Faceless Ones [10,13,14 Mar 1967]"
    ]
  },
  {
    "name": "Grim's Dyke Hotel",
    "url": "https://www.doctorwholocations.net/locations/grimsdykehotel",
    "lat": 51.623056,
    "lng": -0.351944,
    "serials": [
      "The Evil of the Daleks [20,24-25 Apr 1967]: Professor Maxtible's home"
    ]
  },
  {
    "name": "BBC (Kendal Avenue)",
    "url": "https://www.doctorwholocations.net/locations/bbckendalavenue",
    "lat": 51.521944,
    "lng": -0.276389,
    "serials": [
      "The Evil of the Daleks [21 Apr 1967]: Gatwick Airport hangars"
    ]
  },
  {
    "name": "Warehouse Lane",
    "url": "https://www.doctorwholocations.net/locations/warehouselane",
    "lat": 51.507778,
    "lng": -0.225556,
    "serials": [
      "The Evil of the Daleks [21 Apr 1967]: Warehouses"
    ]
  },
  {
    "name": "Gerrards Cross Sand and Gravel Quarry",
    "url": "https://www.doctorwholocations.net/locations/gerrardscrossquarry",
    "lat": 51.590278,
    "lng": -0.596389,
    "serials": [
      "The Tomb of the Cybermen [12 Jun 1967]",
      "The Dominators [25,29 Apr, 2,3 May 1968]: The planet Dulkis",
      "The Twin Dilemma [8 Feb 1984]",
      "Attack of the Cybermen [30-31 May 1984]: Telos ..."
    ]
  },
  {
    "name": "Nant Ffrancon Pass",
    "url": "https://www.doctorwholocations.net/locations/nantffranconpass",
    "lat": 53.123333,
    "lng": -4.023056,
    "serials": [
      "The Abominable Snowmen [4-9 Sep 1967]: The Himalayas"
    ]
  },
  {
    "name": "Climping Beach",
    "url": "https://www.doctorwholocations.net/locations/climpingbeach",
    "lat": 50.8,
    "lng": -0.546944,
    "serials": [
      "The Enemy of the World [5-8 Nov 1967]: The TARDIS arrives at a beach in Australia.",
      "Terror of the Zygons [17 Mar 1975]: A Scottish beach on the North Sea"
    ]
  },
  {
    "name": "BBC Villiers House",
    "url": "https://www.doctorwholocations.net/locations/bbcvilliershouse",
    "lat": 51.514722,
    "lng": -0.301667,
    "serials": [
      "The Enemy of the World [9 Nov 1967]"
    ]
  },
  {
    "name": "Walpole Park",
    "url": "https://www.doctorwholocations.net/locations/walpolepark",
    "lat": 51.509167,
    "lng": -0.308611,
    "serials": [
      "The Enemy of the World [9 Nov 1967]"
    ]
  },
  {
    "name": "Shelton Street",
    "url": "https://www.doctorwholocations.net/locations/sheltonstreet",
    "lat": 51.513611,
    "lng": -0.125,
    "serials": [
      "The Web of Fear [17 Dec 1967]"
    ]
  },
  {
    "name": "Old Brewer's Yard",
    "url": "https://www.doctorwholocations.net/locations/oldbrewersyard",
    "lat": 51.513611,
    "lng": -0.125,
    "serials": [
      "The Web of Fear [17 Dec 1967, 14 Jan 1968]"
    ]
  },
  {
    "name": "Admiralty Arch",
    "url": "https://www.doctorwholocations.net/locations/admiraltyarch",
    "lat": 51.506667,
    "lng": -0.128611,
    "serials": [
      "The Web of Fear [15 Jan 1968]: Still used by Captain Knight during his Yeti briefing"
    ]
  },
  {
    "name": "Buckingham Palace",
    "url": "https://www.doctorwholocations.net/locations/buckinghampalace",
    "lat": 51.501667,
    "lng": -0.140556,
    "serials": [
      "The Web of Fear [15 Jan 1968]: Still used by Captain Knight during his Yeti briefing",
      "Voyage of the Damned [stock footage]: The Titanic is about to crash into Buckingham Palace!",
      "Turn Left [related, tv image re-used from ]: News coverage shows the Titanic crashing into the Palace",
      "The Wedding of River Song [related, stock]: The Buckingham Senate"
    ]
  },
  {
    "name": "Downing Street",
    "url": "https://www.doctorwholocations.net/locations/downingstreet",
    "lat": 51.503056,
    "lng": -0.1275,
    "serials": [
      "The Web of Fear [15 Jan 1968]: Still used by Captain Knight during his Yeti briefing"
    ]
  },
  {
    "name": "Palace of Westminster",
    "url": "https://www.doctorwholocations.net/locations/palaceofwestminster",
    "lat": 51.5,
    "lng": -0.124722,
    "serials": [
      "The Web of Fear [15 Jan 1968]: Still used by Captain Knight during his Yeti briefing",
      "The Christmas Invasion",
      "Children of Earth: Day Three"
    ]
  },
  {
    "name": "St. Paul's Cathedral",
    "url": "https://www.doctorwholocations.net/locations/stpaulscathedral",
    "lat": 51.513611,
    "lng": -0.098056,
    "serials": [
      "The Web of Fear [15 Jan 1968]: Still used by Captain Knight during his Yeti briefing"
    ]
  },
  {
    "name": "Tower Bridge",
    "url": "https://www.doctorwholocations.net/locations/towerbridge",
    "lat": 51.505278,
    "lng": -0.075278,
    "serials": [
      "The Web of Fear [15 Jan 1968]: Still used by Captain Knight during his Yeti briefing",
      "Aliens of London [27 Jul 2004]: Spaceship flies overhead."
    ]
  },
  {
    "name": "Tower of London",
    "url": "https://www.doctorwholocations.net/locations/toweroflondon",
    "lat": 51.508056,
    "lng": -0.075833,
    "serials": [
      "The Web of Fear [15 Jan 1968]: Still used by Captain Knight during his Yeti briefing",
      "The Christmas Invasion [28 Jul 2005]",
      "The Day of The Doctor"
    ]
  },
  {
    "name": "Westminster Abbey",
    "url": "https://www.doctorwholocations.net/locations/westminsterabbey",
    "lat": 51.499167,
    "lng": -0.127222,
    "serials": [
      "The Web of Fear [15 Jan 1968]: Still used by Captain Knight during his Yeti briefing"
    ]
  },
  {
    "name": "Botany Bay",
    "url": "https://www.doctorwholocations.net/locations/botanybay",
    "lat": 51.389722,
    "lng": 1.435278,
    "serials": [
      "Fury from the Deep [4-6 Feb 1968]"
    ]
  },
  {
    "name": "Red Sands Sea Fort",
    "url": "https://www.doctorwholocations.net/locations/redsandsseafort",
    "lat": 51.364167,
    "lng": 1.031944,
    "serials": [
      "Fury from the Deep [4-6 Feb 1968]"
    ]
  },
  {
    "name": "Denham Aerodrome",
    "url": "https://www.doctorwholocations.net/locations/denhamaerodrome",
    "lat": 51.591667,
    "lng": -0.511111,
    "serials": [
      "Fury from the Deep [12 Feb 1968]",
      "The Invasion [unverified]"
    ]
  },
  {
    "name": "Wrotham Quarry",
    "url": "https://www.doctorwholocations.net/locations/wrothamquarry",
    "lat": 51.31,
    "lng": 0.366389,
    "serials": [
      "The Dominators [28 Apr 1968]: The planet Dulkis"
    ]
  },
  {
    "name": "Bowles Outdoor Centre",
    "url": "https://www.doctorwholocations.net/locations/bowlesoutdoorcentre",
    "lat": 51.122222,
    "lng": 0.225278,
    "serials": [
      "The Mind Robber [9 Jun 1968]"
    ]
  },
  {
    "name": "Kenley Aerodrome",
    "url": "https://www.doctorwholocations.net/locations/kenleyaerodrome",
    "lat": 51.303333,
    "lng": -0.095,
    "serials": [
      "The Mind Robber [9 Jun 1968]",
      "Children of Earth: Day Two [related, 2008] (aerial): Aerial view of Johnson's base",
      "Children of Earth: Day Three [related, 2008] (aerial): Aerial view of Johnson's base"
    ]
  },
  {
    "name": "RAF Fairford",
    "url": "https://www.doctorwholocations.net/locations/raffairford",
    "lat": 51.692778,
    "lng": -1.766111,
    "serials": [
      "The Invasion [3 Sep 1968]: UNIT's Mobile Headquarters parked at an airbase"
    ]
  },
  {
    "name": "Willamstrip Farm",
    "url": "https://www.doctorwholocations.net/locations/williamstripfarm",
    "lat": 51.756111,
    "lng": -1.758056,
    "serials": [
      "The Invasion [3 Sep 1968]: The TARDIS has landed in a field, and then turned invisible!"
    ]
  },
  {
    "name": "Hatherop Road",
    "url": "https://www.doctorwholocations.net/locations/hatheroproad",
    "lat": 51.745278,
    "lng": -1.784722,
    "serials": [
      "The Invasion [4 Sep 1968]"
    ]
  },
  {
    "name": "Kingston Minerals",
    "url": "https://www.doctorwholocations.net/locations/kingstonminerals",
    "lat": 51.674444,
    "lng": -1.758889,
    "serials": [
      "The Invasion [5 Sep 1968]"
    ]
  },
  {
    "name": "Sovereign Place",
    "url": "https://www.doctorwholocations.net/locations/sovereignplace",
    "lat": 51.596944,
    "lng": -1.134444,
    "serials": [
      "The Invasion [6 Sep 1968]: International Electromatics Factory (roof)"
    ]
  },
  {
    "name": "Millbank Tower",
    "url": "https://www.doctorwholocations.net/locations/millbanktower",
    "lat": 51.491667,
    "lng": -0.125833,
    "serials": [
      "The Invasion [7 Sep 1968]: Vaughn's London Headquarters"
    ]
  },
  {
    "name": "Australia House",
    "url": "https://www.doctorwholocations.net/locations/australiahouse",
    "lat": 51.5125,
    "lng": -0.115,
    "serials": [
      "The Invasion [8 Sep 1968]: A quiet London morning ..."
    ]
  },
  {
    "name": "Outer Circle",
    "url": "https://www.doctorwholocations.net/locations/outercircle",
    "lat": 51.525556,
    "lng": -0.145556,
    "serials": [
      "Invasion of the Dinosaurs [2 Sep 1973]: A seemingly deserted London"
    ]
  },
  {
    "name": "Ludgate Hill",
    "url": "https://www.doctorwholocations.net/locations/ludgatehill",
    "lat": 51.513611,
    "lng": -0.100833,
    "serials": [
      "The Invasion [8 Sep 1968]: A quiet London morning ..."
    ]
  },
  {
    "name": "Knightrider Street",
    "url": "https://www.doctorwholocations.net/locations/knightriderstreet",
    "lat": 51.5125,
    "lng": -0.098611,
    "serials": [
      "The Invasion [8 Sep 1968]: The Invasion has begun!"
    ]
  },
  {
    "name": "Moor Lane",
    "url": "https://www.doctorwholocations.net/locations/moorlane",
    "lat": 51.518333,
    "lng": -0.090833,
    "serials": [
      "The Invasion [8 Sep 1968]"
    ]
  },
  {
    "name": "Fore Street",
    "url": "https://www.doctorwholocations.net/locations/forestreet",
    "lat": 51.518056,
    "lng": -0.091111,
    "serials": [
      "The Invasion [8 Sep 1968]"
    ]
  },
  {
    "name": "Distaff Lane",
    "url": "https://www.doctorwholocations.net/locations/distafflane",
    "lat": 51.512222,
    "lng": -0.097222,
    "serials": [
      "The Invasion [8 Sep 1968]: People succumb to the Cybermen's control signal as their invasion begins."
    ]
  },
  {
    "name": "Queen Victoria Street",
    "url": "https://www.doctorwholocations.net/locations/queenvictoriastreet",
    "lat": 51.511944,
    "lng": -0.098333,
    "serials": [
      "The Invasion [8 Sep 1968]: The Invasion has begun!"
    ]
  },
  {
    "name": "St. Peter's Steps",
    "url": "https://www.doctorwholocations.net/locations/stpeterssteps",
    "lat": 51.512222,
    "lng": -0.098333,
    "serials": [
      "The Invasion [8 Sep 1968]: The Invasion has begun!"
    ]
  },
  {
    "name": "BBC (Victoria Road)",
    "url": "https://www.doctorwholocations.net/locations/bbcvictoriaroad",
    "lat": 51.5225,
    "lng": -0.259444,
    "serials": [
      "The Invasion [9,10,12 Sep 1968]: Vaughn's Factory, and the base for the Cybermen!",
      "Spearhead from Space [18-19 Sep 1969]: Auto Plastics Factory",
      "The Ambassadors of Death [28 Jan 1970]: Carrington's hideout in an abandonned warehouse"
    ]
  },
  {
    "name": "St. James's Gardens",
    "url": "https://www.doctorwholocations.net/locations/stjamessgardens",
    "lat": 51.508056,
    "lng": -0.214167,
    "serials": [
      "The Invasion [11 Sep 1968]: The home of Professor Watkins."
    ]
  },
  {
    "name": "Princedale Road",
    "url": "https://www.doctorwholocations.net/locations/princedaleroad",
    "lat": 51.508611,
    "lng": -0.210278,
    "serials": [
      "The Invasion [11 Sep 1968]: The Doctor, Jamie and Zoe are dropped off in London."
    ]
  },
  {
    "name": "Heathfield Street",
    "url": "https://www.doctorwholocations.net/locations/heathfieldstreet",
    "lat": 51.511111,
    "lng": -0.211389,
    "serials": [
      "The Invasion [11 Sep 1968]: Having left Vaughn's London headquarters, the Doctor and Jamie realise\nthey are being followed, and then surrounded."
    ]
  },
  {
    "name": "Walmer Road",
    "url": "https://www.doctorwholocations.net/locations/walmerroad",
    "lat": 51.511111,
    "lng": -0.211667,
    "serials": [
      "The Invasion [11 Sep 1968]: Having left Vaughn's London headquarters, the Doctor and Jamie realise\nthey are being followed."
    ]
  },
  {
    "name": "Diageo (Park Royal)",
    "url": "https://www.doctorwholocations.net/locations/diageoparkroyal",
    "lat": 51.530556,
    "lng": -0.282778,
    "serials": [
      "The Invasion [11 Sep 1968]: Vaughn's Headquarters."
    ]
  },
  {
    "name": "Regent's Canal",
    "url": "https://www.doctorwholocations.net/locations/regentscanal",
    "lat": 51.525556,
    "lng": -0.174444,
    "serials": [
      "The Invasion [13 Sep 1968]: The Doctor and Jamie paddle into the sewers to access Vaughn's base."
    ]
  },
  {
    "name": "West of England Quarry",
    "url": "https://www.doctorwholocations.net/locations/westofenglandquarry",
    "lat": 52.101667,
    "lng": -2.341667,
    "serials": [
      "The Krotons [10-11 Nov 1968]"
    ]
  },
  {
    "name": "Tank Quarry",
    "url": "https://www.doctorwholocations.net/locations/tankquarry",
    "lat": 52.1225,
    "lng": -2.34,
    "serials": [
      "The Krotons [10-11 Nov 1968]"
    ]
  },
  {
    "name": "Hampstead Heath",
    "url": "https://www.doctorwholocations.net/locations/hampsteadheath",
    "lat": 51.563056,
    "lng": -0.184444,
    "serials": [
      "The Seeds of Death [19 Dec 1968]"
    ]
  },
  {
    "name": "Sheepcote Valley",
    "url": "https://www.doctorwholocations.net/locations/sheepcotevalley",
    "lat": 50.832778,
    "lng": -0.097778,
    "serials": [
      "The War Games [23-26 Mar 1969]: World War I battlefield"
    ]
  },
  {
    "name": "Seven Sisters Country Park",
    "url": "https://www.doctorwholocations.net/locations/sevensisterscountrypark",
    "lat": 50.772222,
    "lng": 0.155556,
    "serials": [
      "The War Games [27 Mar 1969]: The Roman Zone"
    ]
  },
  {
    "name": "Underhill Lane (bridlepath)",
    "url": "https://www.doctorwholocations.net/locations/underhilllane",
    "lat": 50.909722,
    "lng": -0.151111,
    "serials": [
      "The War Games [28,30 Mar 1969]: The Civil War Zone"
    ]
  },
  {
    "name": "Eastbourne Waterboard Road",
    "url": "https://www.doctorwholocations.net/locations/eastbournewaterboardroad",
    "lat": 50.77,
    "lng": 0.193889,
    "serials": [
      "The War Games [30 Mar 1969]: Outside the Chateau Headquarters"
    ]
  },
  {
    "name": "The Lane",
    "url": "https://www.doctorwholocations.net/locations/lanewestdean",
    "lat": 50.779444,
    "lng": 0.155833,
    "serials": [
      "The War Games [30 Mar 1969]: Road leading to the prison"
    ]
  },
  {
    "name": "High Park Farm",
    "url": "https://www.doctorwholocations.net/locations/highparkfarm",
    "lat": 50.888333,
    "lng": -0.11,
    "serials": [
      "The War Games [31 Mar 1969]: Riders in the Civil War Zone"
    ]
  },
  {
    "name": "Birling Manor Farm",
    "url": "https://www.doctorwholocations.net/locations/birlingmanorfarm",
    "lat": 50.751111,
    "lng": 0.206667,
    "serials": [
      "The War Games [1 Apr 1969]: Military Prison"
    ]
  },
  {
    "name": "5-11 Georges Road",
    "url": "https://www.doctorwholocations.net/locations/georgesroadno5to11",
    "lat": 51.550556,
    "lng": -0.111111,
    "serials": [
      "Spearhead from Space [13 Sep 1969]: doll manufacturing area"
    ]
  },
  {
    "name": "Euston Road",
    "url": "https://www.doctorwholocations.net/locations/eustonroad",
    "lat": 51.528889,
    "lng": -0.125833,
    "serials": [
      "Spearhead from Space [13 Sep 1969]: Liz Shaw is driven to UNIT Headquarters (Camden Town Hall seen behind\nher through car window)."
    ]
  },
  {
    "name": "Midland Road",
    "url": "https://www.doctorwholocations.net/locations/midlandroad",
    "lat": 51.531944,
    "lng": -0.126944,
    "serials": [
      "Spearhead from Space [13 Sep 1969]: Liz Shaw arrives at UNIT Headquarters."
    ]
  },
  {
    "name": "The Broadway",
    "url": "https://www.doctorwholocations.net/locations/ealingbroadway",
    "lat": 51.513056,
    "lng": -0.304167,
    "serials": [
      "Spearhead from Space [14 Sep 1969]: A peaceful morning in London ..."
    ]
  },
  {
    "name": "High Street",
    "url": "https://www.doctorwholocations.net/locations/highstreetealing",
    "lat": 51.511667,
    "lng": -0.304722,
    "serials": [
      "Spearhead from Space [14 Sep 1969]: Autons attack members of the public on London streets!"
    ]
  },
  {
    "name": "Lancaster Road",
    "url": "https://www.doctorwholocations.net/locations/lancasterroad",
    "lat": 51.5125,
    "lng": -0.303889,
    "serials": [
      "Spearhead from Space [14 Sep 1969]: A policeman hears glass smashing and heads off to investigate"
    ]
  },
  {
    "name": "Royal Horticultural Society",
    "url": "https://www.doctorwholocations.net/locations/rhswisley",
    "lat": 51.316667,
    "lng": -0.4725,
    "serials": [
      "Spearhead from Space [15 Sep 1969]"
    ]
  },
  {
    "name": "Hatchford Park",
    "url": "https://www.doctorwholocations.net/locations/hatchfordpark",
    "lat": 51.311944,
    "lng": -0.434722,
    "serials": [
      "Spearhead from Space [17 Sep 1969]"
    ]
  },
  {
    "name": "Wood Norton Hall",
    "url": "https://www.doctorwholocations.net/locations/woodnorton",
    "lat": 52.119722,
    "lng": -1.974444,
    "serials": [
      "Spearhead from Space [8-17,20-22,24-27,30 Oct 1969]",
      "Robot [28-30 Apr, 1,2,5,6 May 1974]"
    ]
  },
  {
    "name": "Wheelbarrow Castle Cottage",
    "url": "https://www.doctorwholocations.net/locations/wheelbarrowcastlecottage",
    "lat": 52.192222,
    "lng": -1.986944,
    "serials": [
      "Spearhead from Space [23 Oct 1969]"
    ]
  },
  {
    "name": "Evesham Hotel",
    "url": "https://www.doctorwholocations.net/locations/eveshamhotel",
    "lat": 52.088333,
    "lng": -1.941944,
    "serials": [
      "Spearhead from Space [28 Oct 1969]"
    ]
  },
  {
    "name": "Madame Tussauds",
    "url": "https://www.doctorwholocations.net/locations/madametussauds",
    "lat": 51.522778,
    "lng": -0.154722,
    "serials": [
      "Spearhead from Space [5 Nov 1969]"
    ]
  },
  {
    "name": "Marylebone Station",
    "url": "https://www.doctorwholocations.net/locations/marylebonestation",
    "lat": 51.522222,
    "lng": -0.162778,
    "serials": [
      "The Silurians [12,24 Nov 1969]: A station in London suffers an outbreak of the Silurian virus"
    ]
  },
  {
    "name": "Melcombe Place",
    "url": "https://www.doctorwholocations.net/locations/melcombeplace",
    "lat": 51.522222,
    "lng": -0.1625,
    "serials": [
      "The Silurians [12 Nov 1969]: Masters hails a taxi and leaves the station before the police arrive."
    ]
  },
  {
    "name": "Dorset Square",
    "url": "https://www.doctorwholocations.net/locations/dorsetsquare",
    "lat": 51.522778,
    "lng": -0.161389,
    "serials": [
      "The Silurians [12 Nov 1969]: Masters gets out of his taxi."
    ]
  },
  {
    "name": "Swancombe House (walkway)",
    "url": "https://www.doctorwholocations.net/locations/swancombehouse",
    "lat": 51.508056,
    "lng": -0.215556,
    "serials": [
      "The Silurians [12 Nov 1969]: Masters succumbs to the Silurian virus and dies."
    ]
  },
  {
    "name": "Sheephatch Farm",
    "url": "https://www.doctorwholocations.net/locations/sheephatchfarm",
    "lat": 51.193611,
    "lng": -0.755,
    "serials": [
      "The Silurians [13-14 Nov 1969]: The Silurian hides out in a farm barn"
    ]
  },
  {
    "name": "Hankley Common",
    "url": "https://www.doctorwholocations.net/locations/hankleycommon",
    "lat": 51.162222,
    "lng": -0.726667,
    "serials": [
      "The Silurians [17-18 Nov 1969]: Wenley Moor"
    ]
  },
  {
    "name": "Milford Chest Hospital",
    "url": "https://www.doctorwholocations.net/locations/milfordchesthospital",
    "lat": 51.167222,
    "lng": -0.624444,
    "serials": [
      "The Silurians [19 Nov 1969]: Wenley Hospital"
    ]
  },
  {
    "name": "High Street",
    "url": "https://www.doctorwholocations.net/locations/highstreetgodalming",
    "lat": 51.185556,
    "lng": -0.610556,
    "serials": [
      "The Silurians [20 Nov 1969]: The Doctor travels to Wenley Moor."
    ]
  },
  {
    "name": "Hog's Back Transmitter Station",
    "url": "https://www.doctorwholocations.net/locations/hogsbacktransmitterstation",
    "lat": 51.228333,
    "lng": -0.605556,
    "serials": [
      "The Silurians [20 Nov 1969]: Wenley nuclear research station."
    ]
  },
  {
    "name": "Lafarge Aggregates (Marlow)",
    "url": "https://www.doctorwholocations.net/locations/lafargeaggregatesmarlow",
    "lat": 51.583889,
    "lng": -0.735278,
    "serials": [
      "The Ambassadors of Death [23 Jan 1970]"
    ]
  },
  {
    "name": "Little Marlow Sewage Treatment Works",
    "url": "https://www.doctorwholocations.net/locations/littlemarlowsewagetreatmentworks",
    "lat": 51.580556,
    "lng": -0.738611,
    "serials": [
      "The Ambassadors of Death [23 Jan 1970]"
    ]
  },
  {
    "name": "Southall Gas Works",
    "url": "https://www.doctorwholocations.net/locations/southallgasworks",
    "lat": 51.505,
    "lng": -0.391389,
    "serials": [
      "The Ambassadors of Death [26-27 Jan 1970]: Space Centre Fueling Depot",
      "Invasion of the Dinosaurs [25 Sep 1973]: A robber avoids a patrol"
    ]
  },
  {
    "name": "White Street",
    "url": "https://www.doctorwholocations.net/locations/whitestreet",
    "lat": 51.504167,
    "lng": -0.390556,
    "serials": [
      "The Ambassadors of Death [27 Jan 1970]",
      "Invasion of the Dinosaurs [25 Sep 1973]: The Doctor is chased down a street by UNIT"
    ]
  },
  {
    "name": "Wycombe Air Park",
    "url": "https://www.doctorwholocations.net/locations/wycombeairpark",
    "lat": 51.610833,
    "lng": -0.800556,
    "serials": [
      "The Ambassadors of Death [29 Jan 1970]: The astronauts are taken from isolation.",
      "The Deadly Assassin [30 Jul 1976]: The Doctor is attacked by a plane in The Matrix"
    ]
  },
  {
    "name": "Gossmore Lane",
    "url": "https://www.doctorwholocations.net/locations/gossmorelane",
    "lat": 51.568611,
    "lng": -0.7625,
    "serials": [
      "The Ambassadors of Death [29 Jan 1970]: Liz is chased across a playing field."
    ]
  },
  {
    "name": "Marlow Weir",
    "url": "https://www.doctorwholocations.net/locations/marlowweir",
    "lat": 51.567222,
    "lng": -0.7725,
    "serials": [
      "The Ambassadors of Death [29 Jan 1970]"
    ]
  },
  {
    "name": "Claycart Bottom",
    "url": "https://www.doctorwholocations.net/locations/claycartbottom",
    "lat": 51.256944,
    "lng": -0.789167,
    "serials": [
      "The Ambassadors of Death [30 Jan 1970]"
    ]
  },
  {
    "name": "Claycart Bridge",
    "url": "https://www.doctorwholocations.net/locations/claycartbridge",
    "lat": 51.266389,
    "lng": -0.779722,
    "serials": [
      "The Ambassadors of Death [30 Jan 1970]"
    ]
  },
  {
    "name": "Fleet Road",
    "url": "https://www.doctorwholocations.net/locations/fleetroad",
    "lat": 51.265,
    "lng": -0.781667,
    "serials": [
      "The Ambassadors of Death [30 Jan 1970]"
    ]
  },
  {
    "name": "Eelmoor Training Circuit",
    "url": "https://www.doctorwholocations.net/locations/eelmoorroad",
    "lat": 51.261667,
    "lng": -0.787222,
    "serials": [
      "The Ambassadors of Death [30 Jan 1970]"
    ]
  },
  {
    "name": "Beacon Hill",
    "url": "https://www.doctorwholocations.net/locations/beaconhill",
    "lat": 51.238611,
    "lng": -0.821944,
    "serials": [
      "The Ambassadors of Death [2 Feb 1970]"
    ]
  },
  {
    "name": "Beacon Hill Road",
    "url": "https://www.doctorwholocations.net/locations/beaconhillroad",
    "lat": 51.240833,
    "lng": -0.825556,
    "serials": [
      "The Ambassadors of Death [2 Feb 1970]"
    ]
  },
  {
    "name": "Lafarge Cement (Northfleet)",
    "url": "https://www.doctorwholocations.net/locations/lafargecementnorthfleet",
    "lat": 51.444722,
    "lng": 0.329167,
    "serials": [
      "The Ambassadors of Death [3-4 Feb 1970]"
    ]
  },
  {
    "name": "Kingsnorth Industrial Estate",
    "url": "https://www.doctorwholocations.net/locations/kingsnorthindustrialestate",
    "lat": 51.427778,
    "lng": 0.599167,
    "serials": [
      "Inferno [31 Mar - 3 Apr 1970]"
    ]
  },
  {
    "name": "St. Peter's Court",
    "url": "https://www.doctorwholocations.net/locations/stpeterscourt",
    "lat": 51.607222,
    "lng": -0.556389,
    "serials": [
      "Terror of the Autons [17 Sep 1970]: A new plastic flower promotion takes place"
    ]
  },
  {
    "name": "Church Lane car park",
    "url": "https://www.doctorwholocations.net/locations/churchlanecarpark",
    "lat": 51.6075,
    "lng": -0.556667,
    "serials": [
      "Terror of the Autons [17 Sep 1970]: The plastic flower sellers return to their coach."
    ]
  },
  {
    "name": "Hodgemoor Woods",
    "url": "https://www.doctorwholocations.net/locations/hodgemoorwoods",
    "lat": 51.635556,
    "lng": -0.605833,
    "serials": [
      "Terror of the Autons [17 Sep 1970]: The coach travels through forest"
    ]
  },
  {
    "name": "Mill Lane",
    "url": "https://www.doctorwholocations.net/locations/milllane",
    "lat": 51.636667,
    "lng": -0.573889,
    "serials": [
      "Terror of the Autons [17 Sep 1970]: The coach crosses a ford"
    ]
  },
  {
    "name": "Lee Valley Ice Centre",
    "url": "https://www.doctorwholocations.net/locations/leevalleyicecentre",
    "lat": 51.563333,
    "lng": -0.043889,
    "serials": [
      "Terror of the Autons [18 Sep 1970]: Rossini's circus"
    ]
  },
  {
    "name": "Totternhoe Lime and Stone Co Ltd",
    "url": "https://www.doctorwholocations.net/locations/totternhoelimeandstonecoltd",
    "lat": 51.89,
    "lng": -0.577222,
    "serials": [
      "Terror of the Autons [21 Sep 1970]: The Doctor and Jo are taken to a quarry"
    ]
  },
  {
    "name": "Zouches Farm Relay Station",
    "url": "https://www.doctorwholocations.net/locations/zouchesfarmrelaystation",
    "lat": 51.877778,
    "lng": -0.483333,
    "serials": [
      "Terror of the Autons [22 Sep 1970]: Beacon Hill Research Establishment"
    ]
  },
  {
    "name": "Ecomold",
    "url": "https://www.doctorwholocations.net/locations/ecomold",
    "lat": 51.886944,
    "lng": -0.504722,
    "serials": [
      "Terror of the Autons [23 Sep 1970]: Farrell's Plastics Factory"
    ]
  },
  {
    "name": "Dover Castle",
    "url": "https://www.doctorwholocations.net/locations/dovercastle",
    "lat": 51.1275,
    "lng": 1.323333,
    "serials": [
      "The Mind of Evil [26-28,31 Oct 1970]"
    ]
  },
  {
    "name": "Archer's Court Road",
    "url": "https://www.doctorwholocations.net/locations/archerscourtroad",
    "lat": 51.1625,
    "lng": 1.303889,
    "serials": [
      "The Mind of Evil [28 Oct 1970]"
    ]
  },
  {
    "name": "Sky Charter UK Limited",
    "url": "https://www.doctorwholocations.net/locations/skycharterukltd",
    "lat": 51.350833,
    "lng": 1.3275,
    "serials": [
      "The Mind of Evil [29 Oct 1970]"
    ]
  },
  {
    "name": "RAF Swingate",
    "url": "https://www.doctorwholocations.net/locations/rafswingate",
    "lat": 51.144444,
    "lng": 1.3325,
    "serials": [
      "The Mind of Evil [30 Oct 1970]"
    ]
  },
  {
    "name": "Pineham Road",
    "url": "https://www.doctorwholocations.net/locations/pinehamroad",
    "lat": 51.164722,
    "lng": 1.3075,
    "serials": [
      "The Mind of Evil [30 Oct 1970]"
    ]
  },
  {
    "name": "Commonwealth Institute",
    "url": "https://www.doctorwholocations.net/locations/commonwealthinstitute",
    "lat": 51.499167,
    "lng": -0.2,
    "serials": [
      "The Mind of Evil [3 Nov 1970]"
    ]
  },
  {
    "name": "Dengemarsh Road",
    "url": "https://www.doctorwholocations.net/locations/dengemarshroad",
    "lat": 50.9275,
    "lng": 0.9175,
    "serials": [
      "The Claws of Axos [4 Jan 1971]: Pigbin Josh falls into a brook as Axos arrives."
    ]
  },
  {
    "name": "Dungeness Beach",
    "url": "https://www.doctorwholocations.net/locations/dungenessbeach",
    "lat": 50.918611,
    "lng": 0.981111,
    "serials": [
      "The Claws of Axos [5 Jan 1971]: Pigbin Josh returns to his bike."
    ]
  },
  {
    "name": "Dungeness Road",
    "url": "https://www.doctorwholocations.net/locations/dungenessroad",
    "lat": 50.918333,
    "lng": 0.976111,
    "serials": [
      "The Claws of Axos [5 Jan 1971]: Axos buries itself in the ground upon arrival."
    ]
  },
  {
    "name": "St. Martin's Plains Camp",
    "url": "https://www.doctorwholocations.net/locations/stmartinsplainscamp",
    "lat": 51.090278,
    "lng": 1.113611,
    "serials": [
      "The Claws of Axos [7 Jan 1971]: The Doctor's TARDIS is transported to the Nuton complex."
    ]
  },
  {
    "name": "Dungeness Power Station",
    "url": "https://www.doctorwholocations.net/locations/dungenesspowerstation",
    "lat": 50.912778,
    "lng": 0.968056,
    "serials": [
      "The Enemy of the World [related, 1967]: Kanowa Research Station",
      "The Claws of Axos [8 Jan 1971]: The Nuton Power Station."
    ]
  },
  {
    "name": "Old Baal Clay Pit",
    "url": "https://www.doctorwholocations.net/locations/oldbaalclaypit",
    "lat": 50.361111,
    "lng": -4.776389,
    "serials": [
      "Colony in Space [10-12,15-16 Feb 1971]: The surface of Uxarieus."
    ]
  },
  {
    "name": "Ady Godwin Car Repairs",
    "url": "https://www.doctorwholocations.net/locations/adygodwin",
    "lat": 51.472222,
    "lng": -1.551944,
    "serials": [
      "The Dæmons [19 Apr 1971]: Bessie's garage"
    ]
  },
  {
    "name": "Membury Crossroads",
    "url": "https://www.doctorwholocations.net/locations/memburycrossroads",
    "lat": 51.465278,
    "lng": -1.550556,
    "serials": [
      "Planet of the Spiders [12-13 Mar 1974]: Chasing down roads"
    ]
  },
  {
    "name": "Oaken Coppice (lane)",
    "url": "https://www.doctorwholocations.net/locations/oakencoppice",
    "lat": 51.45,
    "lng": -1.57,
    "serials": [
      "The Dæmons [19 Apr 1971]: The road to Devil's End"
    ]
  },
  {
    "name": "Aldbourne",
    "url": "https://www.doctorwholocations.net/locations/aldbourne",
    "lat": 51.478889,
    "lng": -1.619722,
    "serials": [
      "The Dæmons [20,22,24,28-30 Apr 1971]: Devil's End"
    ]
  },
  {
    "name": "Four Barrows",
    "url": "https://www.doctorwholocations.net/locations/fourbarrows",
    "lat": 51.493611,
    "lng": -1.640556,
    "serials": [
      "The Dæmons [21,22 Apr 1971]: Archaeological dig that uncovers Azal's spaceship"
    ]
  },
  {
    "name": "Ramsbury Airfield",
    "url": "https://www.doctorwholocations.net/locations/ramsburyairfield",
    "lat": 51.426389,
    "lng": -1.615278,
    "serials": [
      "The Dæmons [23,26-27 Apr 1971]"
    ]
  },
  {
    "name": "Dropmore House",
    "url": "https://www.doctorwholocations.net/locations/dropmorehouse",
    "lat": 51.565556,
    "lng": -0.664167,
    "serials": [
      "Day of the Daleks [13 Sep 1971]"
    ]
  },
  {
    "name": "Bull's Bridge (railway bridge)",
    "url": "https://www.doctorwholocations.net/locations/bullsbridge",
    "lat": 51.502778,
    "lng": -0.403611,
    "serials": [
      "Day of the Daleks [14-15 Sep 1971]: Focal point for the time tunnel."
    ]
  },
  {
    "name": "Harvey House",
    "url": "https://www.doctorwholocations.net/locations/harveyhouse",
    "lat": 51.489444,
    "lng": -0.294722,
    "serials": [
      "Day of the Daleks [14,16 Sep 1971]"
    ]
  },
  {
    "name": "Fraser Gunnery Range",
    "url": "https://www.doctorwholocations.net/locations/frasergunneryrange",
    "lat": 50.786667,
    "lng": -1.035556,
    "serials": [
      "The Sea Devils [21,22,25 Oct 1971]"
    ]
  },
  {
    "name": "No Man's Land Sea Fort",
    "url": "https://www.doctorwholocations.net/locations/nomanslandfort",
    "lat": 50.739722,
    "lng": -1.095,
    "serials": [
      "The Sea Devils [26 Oct 1971]"
    ]
  },
  {
    "name": "Red Cliff",
    "url": "https://www.doctorwholocations.net/locations/redcliff",
    "lat": 50.663056,
    "lng": -1.127778,
    "serials": [
      "The Sea Devils [27 Oct 1971]"
    ]
  },
  {
    "name": "Whitecliff Bay",
    "url": "https://www.doctorwholocations.net/locations/whitecliffbay",
    "lat": 50.67,
    "lng": -1.096667,
    "serials": [
      "The Sea Devils [27 Oct 1971]"
    ]
  },
  {
    "name": "Bembridge Sailing Club",
    "url": "https://www.doctorwholocations.net/locations/bembridgesailingclub",
    "lat": 50.693333,
    "lng": -1.092778,
    "serials": [
      "The Sea Devils [28 Oct 1971]"
    ]
  },
  {
    "name": "Bembridge Harbour",
    "url": "https://www.doctorwholocations.net/locations/bembridgeharbour",
    "lat": 50.695,
    "lng": -1.094444,
    "serials": [
      "The Sea Devils [28 Oct 1971]"
    ]
  },
  {
    "name": "Priory Bay",
    "url": "https://www.doctorwholocations.net/locations/priorybay",
    "lat": 50.708611,
    "lng": -1.102222,
    "serials": [
      "The Sea Devils [28 Oct 1971]"
    ]
  },
  {
    "name": "Norris Castle",
    "url": "https://www.doctorwholocations.net/locations/norriscastle",
    "lat": 50.763056,
    "lng": -1.270556,
    "serials": [
      "The Sea Devils [29 Oct 1971]"
    ]
  },
  {
    "name": "Bluewater",
    "url": "https://www.doctorwholocations.net/locations/bluewater",
    "lat": 51.438889,
    "lng": 0.271389,
    "serials": [
      "The Mutants [7-8 Feb 1972]: Planet Solos"
    ]
  },
  {
    "name": "Stone House Farm (caves)",
    "url": "https://www.doctorwholocations.net/locations/stonehousefarmcaves",
    "lat": 51.414722,
    "lng": 0.491667,
    "serials": [
      "The Mutants [9-10 Feb 1972]: Cave Entrance"
    ]
  },
  {
    "name": "Chislehurst Caves",
    "url": "https://www.doctorwholocations.net/locations/chislehurstcaves",
    "lat": 51.407222,
    "lng": 0.056667,
    "serials": [
      "The Mutants [10-12 Feb 1972]: The Caves"
    ]
  },
  {
    "name": "Swallowfield Park",
    "url": "https://www.doctorwholocations.net/locations/swallowfieldpark",
    "lat": 51.383611,
    "lng": -0.950556,
    "serials": [
      "The Time Monster [4-5 Apr 1972]: The Newton Institute"
    ]
  },
  {
    "name": "Park Lane",
    "url": "https://www.doctorwholocations.net/locations/parklanefaircross",
    "lat": 51.364722,
    "lng": -1.004444,
    "serials": [
      "The Time Monster [6 Apr 1972]: The Doctor, Jo and the Brigadier see the UNIT convoy bombed"
    ]
  },
  {
    "name": "Stratfield Saye Park",
    "url": "https://www.doctorwholocations.net/locations/stratfieldsayepark",
    "lat": 51.356389,
    "lng": -0.987778,
    "serials": [
      "The Time Monster [6 Apr 1972]: The UNIT convoy is attacked"
    ]
  },
  {
    "name": "School Lane",
    "url": "https://www.doctorwholocations.net/locations/schoollane",
    "lat": 51.361944,
    "lng": -0.946389,
    "serials": [
      "The Time Monster [unused, 6 Apr 1972]: Originally planned for the UNIT convoy on the road"
    ]
  },
  {
    "name": "Old Church Farm (road)",
    "url": "https://www.doctorwholocations.net/locations/hartleywintney",
    "lat": 51.294444,
    "lng": -0.901111,
    "serials": [
      "The Time Monster [unused, 7 Apr 1972]: Originally planned for scenes with Bessie on the way to Cambridge"
    ]
  },
  {
    "name": "Tillingham Marshes",
    "url": "https://www.doctorwholocations.net/locations/tillinghammarshes",
    "lat": 51.685278,
    "lng": 0.933611,
    "serials": [
      "Carnival of Monsters [30-31 May 1972]: Marshland inhabited by Drashigs"
    ]
  },
  {
    "name": "Asheldham Nature Reserve",
    "url": "https://www.doctorwholocations.net/locations/asheldhamnaturereserve",
    "lat": 51.679444,
    "lng": 0.853056,
    "serials": [
      "Carnival of Monsters [31 May 1972]: The Doctor and Jo hide in a cave."
    ]
  },
  {
    "name": "Bray Studios",
    "url": "https://www.doctorwholocations.net/locations/braystudios",
    "lat": 51.491667,
    "lng": -0.676389,
    "serials": []
  },
  {
    "name": "South Bank Centre",
    "url": "https://www.doctorwholocations.net/locations/southbankcentre",
    "lat": 51.506111,
    "lng": -0.115556,
    "serials": [
      "Frontier in Space [10 Sep 1972]: Earth Prison"
    ]
  },
  {
    "name": "Beachfields Quarry",
    "url": "https://www.doctorwholocations.net/locations/beachfieldsquarry",
    "lat": 51.244444,
    "lng": -0.144722,
    "serials": [
      "Frontier in Space [11-12 Sep 1972]: The planet of the Ogrons",
      "The Invasion of Time [14-15 Nov 1977]: The outer lands of Gallifrey",
      "Planet of the Daleks [2-3 Jan 1973]"
    ]
  },
  {
    "name": "Fitzroy Park",
    "url": "https://www.doctorwholocations.net/locations/fitzroypark",
    "lat": 51.566667,
    "lng": -0.157222,
    "serials": [
      "Frontier in Space [13 Sep 1972]: Draconian Embassy on Earth"
    ]
  },
  {
    "name": "Summerfield Bungalow",
    "url": "https://www.doctorwholocations.net/locations/summerfieldbungalow",
    "lat": 51.626944,
    "lng": -0.494722,
    "serials": [
      "The Three Doctors [7 Nov 1972]: The Ollis residence."
    ]
  },
  {
    "name": "Springwell Lake",
    "url": "https://www.doctorwholocations.net/locations/springwelllake",
    "lat": 51.623889,
    "lng": -0.496667,
    "serials": [
      "The Three Doctors [7 Nov 1972]: The nature reserve."
    ]
  },
  {
    "name": "Springwell Lock",
    "url": "https://www.doctorwholocations.net/locations/springwelllock",
    "lat": 51.624722,
    "lng": -0.495278,
    "serials": [
      "The Three Doctors [7-9 Nov 1972]: Professor Tyler travels to the nature reserve."
    ]
  },
  {
    "name": "Springwell Quarry",
    "url": "https://www.doctorwholocations.net/locations/springwellquarry",
    "lat": 51.625833,
    "lng": -0.492222,
    "serials": [
      "The Three Doctors [7-9 Nov 1972]: Omega's World.",
      "Earthshock [29 Oct 1981]: 26th Century Earth, near a network of caves containing dinosaur\nfossils.",
      "The Twin Dilemma [7 Feb 1984]: The surface of Titan Three",
      "Delta and the Bannermen [24 Jun 1987]: The Chimeron homeworld"
    ]
  },
  {
    "name": "Denham Manor",
    "url": "https://www.doctorwholocations.net/locations/denhammanor",
    "lat": 51.593889,
    "lng": -0.511111,
    "serials": [
      "The Five Doctors [17 Mar 1983]: UNIT HQ",
      "The Three Doctors [10 Nov 1972]: UNIT HQ."
    ]
  },
  {
    "name": "Troed-y-Rhiw-Jestyn",
    "url": "https://www.doctorwholocations.net/locations/troedyrhiwjestyn",
    "lat": 51.719167,
    "lng": -3.269444,
    "serials": [
      "The Green Death [12 Mar 1973]: The Nut Hatch"
    ]
  },
  {
    "name": "Darran Valley Country Park",
    "url": "https://www.doctorwholocations.net/locations/darranvalley",
    "lat": 51.718889,
    "lng": -3.273611,
    "serials": [
      "The Green Death [12-15 Mar 1973]: The pit / Metabelis 3"
    ]
  },
  {
    "name": "Anacomp Magnetics",
    "url": "https://www.doctorwholocations.net/locations/anacompmagnetics",
    "lat": 51.803333,
    "lng": -3.164167,
    "serials": [
      "The Green Death [16,19,20 Mar 1973]"
    ]
  },
  {
    "name": "Peckforton Castle",
    "url": "https://www.doctorwholocations.net/locations/peckfortoncastle",
    "lat": 53.1175,
    "lng": -2.698611,
    "serials": [
      "The Time Warrior [7-10 May 1973]"
    ]
  },
  {
    "name": "Old Billingsgate Market",
    "url": "https://www.doctorwholocations.net/locations/oldbillingsgatemarket",
    "lat": 51.508889,
    "lng": -0.084167,
    "serials": [
      "Invasion of the Dinosaurs [2 Sep 1973]: A seemingly deserted London"
    ]
  },
  {
    "name": "Haymarket",
    "url": "https://www.doctorwholocations.net/locations/haymarket",
    "lat": 51.509444,
    "lng": -0.1325,
    "serials": [
      "Invasion of the Dinosaurs [2 Sep 1973]: A seemingly deserted London"
    ]
  },
  {
    "name": "Margaret Street",
    "url": "https://www.doctorwholocations.net/locations/margaretstreet",
    "lat": 51.516667,
    "lng": -0.139722,
    "serials": [
      "Invasion of the Dinosaurs [2 Sep 1973]: A seemingly deserted London"
    ]
  },
  {
    "name": "Long Lane",
    "url": "https://www.doctorwholocations.net/locations/longlane",
    "lat": 51.519167,
    "lng": -0.099722,
    "serials": [
      "Invasion of the Dinosaurs [2,23 Sep 1973]: A seemingly deserted London"
    ]
  },
  {
    "name": "Lindsey Street",
    "url": "https://www.doctorwholocations.net/locations/lindseystreet",
    "lat": 51.519444,
    "lng": -0.099722,
    "serials": [
      "Invasion of the Dinosaurs [23 Sep 1973]: A seemingly deserted London"
    ]
  },
  {
    "name": "New Union Street",
    "url": "https://www.doctorwholocations.net/locations/newunionstreet",
    "lat": 51.518611,
    "lng": -0.088889,
    "serials": [
      "Invasion of the Dinosaurs [23 Sep 1973]: A looter is killed by something unseen."
    ]
  },
  {
    "name": "Moorfields",
    "url": "https://www.doctorwholocations.net/locations/moorfields",
    "lat": 51.518056,
    "lng": -0.088611,
    "serials": [
      "Invasion of the Dinosaurs [23 Sep 1973]: Outside Project Golden Age"
    ]
  },
  {
    "name": "Chamberlain Road",
    "url": "https://www.doctorwholocations.net/locations/chamberlainroad",
    "lat": 51.503333,
    "lng": -0.323889,
    "serials": [
      "Invasion of the Dinosaurs [24 Sep 1973]: The Doctor and Sarah are taken away by the army"
    ]
  },
  {
    "name": "Clementine Close",
    "url": "https://www.doctorwholocations.net/locations/clementineclose",
    "lat": 51.503889,
    "lng": -0.322222,
    "serials": [
      "Invasion of the Dinosaurs [24 Sep 1973]: UNIT Headquarters"
    ]
  },
  {
    "name": "West London Islamic Centre",
    "url": "https://www.doctorwholocations.net/locations/westlondonislamiccentre",
    "lat": 51.510278,
    "lng": -0.326111,
    "serials": [
      "Invasion of the Dinosaurs [24 Sep 1973]: The Doctor and Sarah find looters at a warehouse"
    ]
  },
  {
    "name": "The Straight",
    "url": "https://www.doctorwholocations.net/locations/straight",
    "lat": 51.504444,
    "lng": -0.388333,
    "serials": [
      "Invasion of the Dinosaurs [25 Sep 1973]: The Doctor and Sarah escape as the army battle a dinosaur."
    ]
  },
  {
    "name": "Wimbledon Common",
    "url": "https://www.doctorwholocations.net/locations/wimbledoncommon",
    "lat": 51.441389,
    "lng": -0.228333,
    "serials": [
      "Invasion of the Dinosaurs [26 Sep 1973]: The Doctor evades UNIT troops chasing him through a park",
      "An Adventure in Space and Time"
    ]
  },
  {
    "name": "GPO Sorting Office",
    "url": "https://www.doctorwholocations.net/locations/gposortingofficekingston",
    "lat": 51.408333,
    "lng": -0.302222,
    "serials": [
      "Invasion of the Dinosaurs [26 Sep 1973]: The Doctor and Sarah find a closed police station"
    ]
  },
  {
    "name": "Palmer Crescent",
    "url": "https://www.doctorwholocations.net/locations/palmercrescent",
    "lat": 51.406944,
    "lng": -0.302778,
    "serials": [
      "Invasion of the Dinosaurs [26 Sep 1973]: The Doctor and Sarah see a van drive past"
    ]
  },
  {
    "name": "Parkfields Road",
    "url": "https://www.doctorwholocations.net/locations/parkfieldsroad",
    "lat": 51.426667,
    "lng": -0.291389,
    "serials": [
      "Invasion of the Dinosaurs [26 Sep 1973]: The Doctor travels to Project Golden Age's headquarters"
    ]
  },
  {
    "name": "Wilmer Close",
    "url": "https://www.doctorwholocations.net/locations/wilmerclose",
    "lat": 51.426944,
    "lng": -0.290556,
    "serials": [
      "Invasion of the Dinosaurs [26 Sep 1973]: An abandoned milk float in a street"
    ]
  },
  {
    "name": "Kent Road",
    "url": "https://www.doctorwholocations.net/locations/kentroad",
    "lat": 51.406667,
    "lng": -0.306111,
    "serials": [
      "Invasion of the Dinosaurs [26-27 Sep 1973]: The Doctor and Sarah are arrested as looters"
    ]
  },
  {
    "name": "Canbury Gardens",
    "url": "https://www.doctorwholocations.net/locations/canburygardens",
    "lat": 51.4175,
    "lng": -0.305,
    "serials": [
      "Invasion of the Dinosaurs [27 Sep 1973]: The TARDIS materialises in a strangely quiet park..."
    ]
  },
  {
    "name": "Lower Ham Road",
    "url": "https://www.doctorwholocations.net/locations/lowerhamroad",
    "lat": 51.417778,
    "lng": -0.304167,
    "serials": [
      "Invasion of the Dinosaurs [27 Sep 1973]: The Doctor and Sarah wait for a bus"
    ]
  },
  {
    "name": "South Lane",
    "url": "https://www.doctorwholocations.net/locations/southlane",
    "lat": 51.406111,
    "lng": -0.307222,
    "serials": [
      "Invasion of the Dinosaurs [27 Sep 1973]: The Doctor stops to make some checks with his detector"
    ]
  },
  {
    "name": "Burford Road",
    "url": "https://www.doctorwholocations.net/locations/burfordroad",
    "lat": 51.489444,
    "lng": -0.298333,
    "serials": [
      "Invasion of the Dinosaurs [27 Sep 1973]: A dog runs down an abandoned street"
    ]
  },
  {
    "name": "Riverside Drive",
    "url": "https://www.doctorwholocations.net/locations/riversidedrive",
    "lat": 51.436944,
    "lng": -0.322222,
    "serials": [
      "Invasion of the Dinosaurs [27 Sep 1973]: The Doctor and Brigadier drive to Project Golden Age headquarters"
    ]
  },
  {
    "name": "Electricity Substation",
    "url": "https://www.doctorwholocations.net/locations/elderberryroadelectricitysubstation",
    "lat": 51.501667,
    "lng": -0.296667,
    "serials": [
      "Invasion of the Dinosaurs [29 Sep 1973]: UNIT try to trap a dinosaur for the Doctor"
    ]
  },
  {
    "name": "Hanson's Aggregates (Binnegar Plain quarry)",
    "url": "https://www.doctorwholocations.net/locations/hansonswareham",
    "lat": 50.69,
    "lng": -2.1725,
    "serials": [
      "Death to the Daleks [13-16 Nov 1973]"
    ]
  },
  {
    "name": "Tidmarsh Manor",
    "url": "https://www.doctorwholocations.net/locations/tidmarshmanor",
    "lat": 51.464444,
    "lng": -1.094444,
    "serials": [
      "Planet of the Spiders [11 Mar 1974]: The Retreat"
    ]
  },
  {
    "name": "Tidmarsh Lane",
    "url": "https://www.doctorwholocations.net/locations/tidmarshlane",
    "lat": 51.469722,
    "lng": -1.125833,
    "serials": [
      "Planet of the Spiders [11 Mar 1974]: Mike and Sarah are forced off the road"
    ]
  },
  {
    "name": "Mortimer Station",
    "url": "https://www.doctorwholocations.net/locations/mortimerstation",
    "lat": 51.371944,
    "lng": -1.035556,
    "serials": [
      "Planet of the Spiders [11 Mar 1974]: Mike meets Sarah at the station"
    ]
  },
  {
    "name": "Jacquet Weston Engineering (approach road)",
    "url": "https://www.doctorwholocations.net/locations/jacquetwestonengineering",
    "lat": 51.473611,
    "lng": -1.5525,
    "serials": [
      "Planet of the Spiders [12-13 Mar 1974]: Airfields"
    ]
  },
  {
    "name": "Ramsbury Road",
    "url": "https://www.doctorwholocations.net/locations/ramsburyroad",
    "lat": 51.473333,
    "lng": -1.551944,
    "serials": [
      "Planet of the Spiders [12-13 Mar 1974]: Chasing down roads"
    ]
  },
  {
    "name": "Half Mile Road",
    "url": "https://www.doctorwholocations.net/locations/halfmileroad",
    "lat": 51.463333,
    "lng": -1.537778,
    "serials": [
      "Planet of the Spiders [12-13 Mar 1974]: Chasing down roads"
    ]
  },
  {
    "name": "Membury Hall Lane",
    "url": "https://www.doctorwholocations.net/locations/memburyhalllane",
    "lat": 51.4675,
    "lng": -1.556667,
    "serials": [
      "Planet of the Spiders [12-13 Mar 1974]: Chasing down roads"
    ]
  },
  {
    "name": "Hillier Road",
    "url": "https://www.doctorwholocations.net/locations/hillierroad",
    "lat": 51.3625,
    "lng": -1.972778,
    "serials": [
      "Planet of the Spiders [13 Mar 1974]: UNIT HQ"
    ]
  },
  {
    "name": "Strand",
    "url": "https://www.doctorwholocations.net/locations/strand",
    "lat": 51.8175,
    "lng": -2.414167,
    "serials": [
      "Planet of the Spiders [14-15 Mar 1974]: The Doctor and Sarah track Lupton to the river / The Doctor takes a shortcut!"
    ]
  },
  {
    "name": "River Severn",
    "url": "https://www.doctorwholocations.net/locations/riversevern",
    "lat": 51.816944,
    "lng": -2.414167,
    "serials": [
      "Planet of the Spiders [14-15 Mar 1974]: The Doctor chases Lupton down the river.",
      "The End of Time [2009]: Aerial shots towards Naismith's"
    ]
  },
  {
    "name": "Headland Warren",
    "url": "https://www.doctorwholocations.net/locations/headlandwarren",
    "lat": 50.615278,
    "lng": -3.868056,
    "serials": [
      "The Sontaran Experiment [26-28 Sep 1974]"
    ]
  },
  {
    "name": "Hound Tor",
    "url": "https://www.doctorwholocations.net/locations/houndtor",
    "lat": 50.596667,
    "lng": -3.778056,
    "serials": [
      "The Sontaran Experiment [29-30 Sep, 1-2 Oct 1974]"
    ]
  },
  {
    "name": "Wookey Hole Caves",
    "url": "https://www.doctorwholocations.net/locations/wookeyholecaves",
    "lat": 51.227222,
    "lng": -2.671111,
    "serials": [
      "The Silurians [unused, n/a]: Originally considered for the caves, but was deemed too expensive",
      "Revenge of the Cybermen [18-21 Nov 1974]",
      "The End of Time [17 Apr 2009]: The Council of the Ood's chamber"
    ]
  },
  {
    "name": "Betchworth Quarry",
    "url": "https://www.doctorwholocations.net/locations/betchworthquarry",
    "lat": 51.250278,
    "lng": -0.270556,
    "serials": [
      "The Deadly Assassin [26-28 Jul 1976]: The Matrix barren landscape",
      "Genesis of the Daleks [6-9 Jan 1975]: The surface of Skaro"
    ]
  },
  {
    "name": "Ambersham Common",
    "url": "https://www.doctorwholocations.net/locations/ambershamcommon",
    "lat": 50.965833,
    "lng": -0.7025,
    "serials": [
      "Terror of the Zygons [17-19 Mar 1975]: The TARDIS arrives in Scotland."
    ]
  },
  {
    "name": "Hall Aggregates (South Coast) Ltd",
    "url": "https://www.doctorwholocations.net/locations/hallaggregatesquarry",
    "lat": 50.916944,
    "lng": -0.433889,
    "serials": [
      "Terror of the Zygons [18 Mar 1975]: Hibernian Base/Quarry"
    ]
  },
  {
    "name": "Charlton",
    "url": "https://www.doctorwholocations.net/locations/charlton",
    "lat": 50.909444,
    "lng": -0.738333,
    "serials": [
      "Terror of the Zygons [20 Mar 1975]: UNIT are based in an inn at a local village."
    ]
  },
  {
    "name": "Furnace Pond",
    "url": "https://www.doctorwholocations.net/locations/furnacepond",
    "lat": 51.013333,
    "lng": -0.248889,
    "serials": [
      "Terror of the Zygons [21 Mar 1975]: Woods/Loch Ness"
    ]
  },
  {
    "name": "Millbank",
    "url": "https://www.doctorwholocations.net/locations/millbank",
    "lat": 51.493333,
    "lng": -0.125,
    "serials": [
      "Terror of the Zygons [21 Mar 1975]",
      "Children of Earth: Day One"
    ]
  },
  {
    "name": "Stargrove Manor",
    "url": "https://www.doctorwholocations.net/locations/stargrovemanor",
    "lat": 51.346389,
    "lng": -1.410833,
    "serials": [
      "Image of the Fendahl [1-4 Aug 1977]: The Fetch Priory",
      "Pyramids of Mars [29 Apr - 2 May 1975]: The Scarman Estate"
    ]
  },
  {
    "name": "Radiation Protection Division",
    "url": "https://www.doctorwholocations.net/locations/hparpd",
    "lat": 51.575278,
    "lng": -1.318056,
    "serials": [
      "The Android Invasion [21 Jul 1975]: The Space Defence Station."
    ]
  },
  {
    "name": "Worsham Quarry",
    "url": "https://www.doctorwholocations.net/locations/worshamquarry",
    "lat": 51.804167,
    "lng": -1.566389,
    "serials": [
      "The Android Invasion [22 Jul 1975]: Android capsules arrive on Earth."
    ]
  },
  {
    "name": "Tubney Wood",
    "url": "https://www.doctorwholocations.net/locations/tubneywood",
    "lat": 51.690278,
    "lng": -1.36,
    "serials": [
      "The Android Invasion [22-23 Jul 1975]: The TARDIS lands in a seemingly peaceful English wood."
    ]
  },
  {
    "name": "East Hagbourne",
    "url": "https://www.doctorwholocations.net/locations/easthagbourne",
    "lat": 51.590833,
    "lng": -1.241389,
    "serials": [
      "The Android Invasion [24-25 Jul 1975]: The village of Devesham"
    ]
  },
  {
    "name": "Athelhampton House",
    "url": "https://www.doctorwholocations.net/locations/athelhamptonhouse",
    "lat": 50.7475,
    "lng": -2.326944,
    "serials": [
      "The Seeds of Doom [30-31 Oct, 1-3 Nov 1975]: Harrison Chase's Estate"
    ]
  },
  {
    "name": "Buckland Sand and Silica Co Ltd",
    "url": "https://www.doctorwholocations.net/locations/bucklandsandandsilicacoltd",
    "lat": 51.246667,
    "lng": -0.242222,
    "serials": [
      "The Seeds of Doom [7-8 Nov 1975]: Antartica/Quarry"
    ]
  },
  {
    "name": "Portmeirion",
    "url": "https://www.doctorwholocations.net/locations/portmeirion",
    "lat": 52.913333,
    "lng": -4.098056,
    "serials": [
      "The Masque of Mandragora [3-6 May 1976]"
    ]
  },
  {
    "name": "Slickstones Quarry",
    "url": "https://www.doctorwholocations.net/locations/slickstonesquarry",
    "lat": 51.622222,
    "lng": -2.428056,
    "serials": [
      "The Hand of Fear [14-15 Jun 1976]: TARDIS landing site; Sarah gets buried under rubble."
    ]
  },
  {
    "name": "Oldbury Power Station",
    "url": "https://www.doctorwholocations.net/locations/oldburypowerstation",
    "lat": 51.648056,
    "lng": -2.569444,
    "serials": [
      "The Hand of Fear [16-17 Jun 1976]: Nunton Power Station"
    ]
  },
  {
    "name": "Stokefield Close",
    "url": "https://www.doctorwholocations.net/locations/stokefieldclose",
    "lat": 51.609722,
    "lng": -2.527778,
    "serials": [
      "The Hand of Fear [17 Jun 1976]: Sarah is dropped off back in \"Croydon\""
    ]
  },
  {
    "name": "Brockham Lime Works",
    "url": "https://www.doctorwholocations.net/locations/brockhamlimeworks",
    "lat": 51.245556,
    "lng": -0.283889,
    "serials": [
      "The Deadly Assassin [27 Jul 1976] (Brockham Museum): The Doctor is trapped in points as a train hurtles towards him!"
    ]
  },
  {
    "name": "Royal Alexander and Albert School",
    "url": "https://www.doctorwholocations.net/locations/royalalexanderandalbertschool",
    "lat": 51.258056,
    "lng": -0.175278,
    "serials": [
      "The Deadly Assassin [28-30 Jul 1976] (Lake): The Matrix jungle/lake"
    ]
  },
  {
    "name": "Skin Market Place",
    "url": "https://www.doctorwholocations.net/locations/skinmarketplace",
    "lat": 51.507778,
    "lng": -0.0975,
    "serials": [
      "The Talons of Weng-Chiang [13 Dec 1976]"
    ]
  },
  {
    "name": "Clink Street",
    "url": "https://www.doctorwholocations.net/locations/clinkstreet",
    "lat": 51.506944,
    "lng": -0.092222,
    "serials": [
      "The Talons of Weng-Chiang [14 Dec 1976]: Buller and then the Doctor are attacked on the street, and then\nlater Litefoot and Jago lurk outside Greel's headquarters."
    ]
  },
  {
    "name": "Bankside Jetty",
    "url": "https://www.doctorwholocations.net/locations/bankside",
    "lat": 51.508056,
    "lng": -0.0975,
    "serials": [
      "The Talons of Weng-Chiang [14 Dec 1976]"
    ]
  },
  {
    "name": "Winchester Square",
    "url": "https://www.doctorwholocations.net/locations/winchestersquare",
    "lat": 51.506667,
    "lng": -0.090833,
    "serials": [
      "The Talons of Weng-Chiang [14 Dec 1976]"
    ]
  },
  {
    "name": "Cambridge Park",
    "url": "https://www.doctorwholocations.net/locations/cambridgepark",
    "lat": 51.451944,
    "lng": -0.308333,
    "serials": [
      "The Talons of Weng-Chiang [15 Dec 1976]"
    ]
  },
  {
    "name": "Wapping Pier Head",
    "url": "https://www.doctorwholocations.net/locations/wappingpierhead",
    "lat": 51.503611,
    "lng": -0.062778,
    "serials": [
      "The Talons of Weng-Chiang [16 Dec 1976]"
    ]
  },
  {
    "name": "Wapping Old Stairs",
    "url": "https://www.doctorwholocations.net/locations/wappingoldstairs",
    "lat": 51.503056,
    "lng": -0.062222,
    "serials": [
      "The Talons of Weng-Chiang [16 Dec 1976]"
    ]
  },
  {
    "name": "City Buildings",
    "url": "https://www.doctorwholocations.net/locations/citybuildings",
    "lat": 52.237778,
    "lng": -0.893056,
    "serials": [
      "The Talons of Weng-Chiang [8 Jan 1977]"
    ]
  },
  {
    "name": "Royal Theatre",
    "url": "https://www.doctorwholocations.net/locations/royaltheatre",
    "lat": 52.236111,
    "lng": -0.894167,
    "serials": [
      "The Talons of Weng-Chiang [9-12 Jan 1977]"
    ]
  },
  {
    "name": "St Crispin's Hospital",
    "url": "https://www.doctorwholocations.net/locations/stcrispinshospital",
    "lat": 52.24,
    "lng": -0.947222,
    "serials": [
      "The Talons of Weng-Chiang [12 Jan 1977]"
    ]
  },
  {
    "name": "KJP Trading",
    "url": "https://www.doctorwholocations.net/locations/kjptrading",
    "lat": 51.521111,
    "lng": -0.263056,
    "serials": []
  },
  {
    "name": "BBC (Pebble Mill)",
    "url": "https://www.doctorwholocations.net/locations/bbcpebblemillstudios",
    "lat": 52.450278,
    "lng": -1.912778,
    "serials": []
  },
  {
    "name": "Imperial Park",
    "url": "https://www.doctorwholocations.net/locations/imperialpark",
    "lat": 51.416111,
    "lng": -2.6,
    "serials": [
      "The Sun Makers [13-15 Jun 1977]"
    ]
  },
  {
    "name": "Camden Town Deep Tube Shelters",
    "url": "https://www.doctorwholocations.net/locations/camdentownshelters",
    "lat": 51.539167,
    "lng": -0.1425,
    "serials": [
      "The Sun Makers [16,17,20 Jun 1977]"
    ]
  },
  {
    "name": "St Anne's Hospital",
    "url": "https://www.doctorwholocations.net/locations/stanneshospital",
    "lat": 51.241389,
    "lng": -0.163056,
    "serials": [
      "The Invasion of Time [15-17 Nov, 5-9,12-16 Dec 1977]: Part of the Capitol, and interior of the TARDIS"
    ]
  },
  {
    "name": "British Oxygen",
    "url": "https://www.doctorwholocations.net/locations/britishoxygen",
    "lat": 51.491389,
    "lng": -0.2275,
    "serials": [
      "The Invasion of Time [18 Nov 1977]: The TARDIS \"bathroom\""
    ]
  },
  {
    "name": "Berkeley Power Station",
    "url": "https://www.doctorwholocations.net/locations/berkeleypowerstation",
    "lat": 51.691667,
    "lng": -2.494167,
    "serials": [
      "The Pirate Planet [1 May 1978]"
    ]
  },
  {
    "name": "Big Pit",
    "url": "https://www.doctorwholocations.net/locations/bigpit",
    "lat": 51.772222,
    "lng": -3.104722,
    "serials": [
      "The Pirate Planet [2 May 1978]"
    ]
  },
  {
    "name": "Coity Mountain",
    "url": "https://www.doctorwholocations.net/locations/coitymountain",
    "lat": 51.77,
    "lng": -3.103333,
    "serials": [
      "The Pirate Planet [2 May 1978]"
    ]
  },
  {
    "name": "Bwlch y Garn",
    "url": "https://www.doctorwholocations.net/locations/bwlchygarn",
    "lat": 51.770833,
    "lng": -3.188611,
    "serials": [
      "The Pirate Planet [2 May 1978]"
    ]
  },
  {
    "name": "Gellifelen Railway Tunnels",
    "url": "https://www.doctorwholocations.net/locations/gellifelenrailwaytunnels",
    "lat": 51.802222,
    "lng": -3.135556,
    "serials": [
      "The Pirate Planet [3,5 May 1978]"
    ]
  },
  {
    "name": "National Showcaves Centre for Wales",
    "url": "https://www.doctorwholocations.net/locations/nscwales",
    "lat": 51.830833,
    "lng": -3.685,
    "serials": [
      "The Pirate Planet [4 May 1978] (Cathedral Cave): The Doctor, Romana and Kimus explore the interior of Zanak"
    ]
  },
  {
    "name": "Brewery Row",
    "url": "https://www.doctorwholocations.net/locations/breweryrow",
    "lat": 51.969444,
    "lng": -1.621111,
    "serials": [
      "The Stones of Blood [12 Jun 1978]: The Doctor walks up to De Vries's manor"
    ]
  },
  {
    "name": "Reed Business School Ltd",
    "url": "https://www.doctorwholocations.net/locations/reedbusinessschool",
    "lat": 51.970556,
    "lng": -1.619722,
    "serials": [
      "The Stones of Blood [12 Jun 1978]: The Doctor enters De Vries's manor"
    ]
  },
  {
    "name": "The King's Men",
    "url": "https://www.doctorwholocations.net/locations/kingsmen",
    "lat": 51.975278,
    "lng": -1.570556,
    "serials": [
      "The Stones of Blood [13 Jun 1978]: The circle of stones."
    ]
  },
  {
    "name": "Manor Farm",
    "url": "https://www.doctorwholocations.net/locations/manorfarm",
    "lat": 51.9675,
    "lng": -1.572222,
    "serials": [
      "The Stones of Blood [14 Jun 1978]: The TARDIS materialises in a field."
    ]
  },
  {
    "name": "Little Rollright Quarry",
    "url": "https://www.doctorwholocations.net/locations/littlerollrightquarry",
    "lat": 51.973889,
    "lng": -1.592222,
    "serials": [
      "The Stones of Blood [15 Jun 1978]: Romana nearly plunges into the sea off a cliff."
    ]
  },
  {
    "name": "Leeds Castle",
    "url": "https://www.doctorwholocations.net/locations/leedscastle",
    "lat": 51.248333,
    "lng": 0.629167,
    "serials": [
      "The Androids of Tara [24-28 Jul 1978]: Tara"
    ]
  },
  {
    "name": "The Maltings",
    "url": "https://www.doctorwholocations.net/locations/maltings",
    "lat": 52.163056,
    "lng": 1.498333,
    "serials": [
      "The Power of Kroll [18,20-21 Sep 1978]"
    ]
  },
  {
    "name": "Iken Cliff",
    "url": "https://www.doctorwholocations.net/locations/ikencliff",
    "lat": 52.151111,
    "lng": 1.505278,
    "serials": [
      "The Power of Kroll [19,21-22,25-28 Sep 1978]"
    ]
  },
  {
    "name": "Boulvard St Germain",
    "url": "https://www.doctorwholocations.net/locations/boulevardsaintgermain",
    "lat": 48.854722,
    "lng": 2.329722,
    "serials": [
      "City of Death [30 Apr,3 May 1979]"
    ]
  },
  {
    "name": "Petit Pont",
    "url": "https://www.doctorwholocations.net/locations/petitpont",
    "lat": 48.853333,
    "lng": 2.346944,
    "serials": [
      "City of Death [1 May 1979]"
    ]
  },
  {
    "name": "Place du Petit Pont",
    "url": "https://www.doctorwholocations.net/locations/placedupetitpont",
    "lat": 48.852778,
    "lng": 2.346667,
    "serials": [
      "City of Death [1 May 1979]"
    ]
  },
  {
    "name": "Eiffel Tower",
    "url": "https://www.doctorwholocations.net/locations/eiffeltower",
    "lat": 48.858056,
    "lng": 2.294444,
    "serials": [
      "City of Death [2 May 1979]",
      "Doctor Who (TV Movie) [related, still]",
      "The Christmas Invasion [related, still (Getty Images)]: People stand on monuments around the world.",
      "The Bells of Saint John [2 Dec 2012]: using wifi by the Eiffel Tower"
    ]
  },
  {
    "name": "Rue Vielle du Temple",
    "url": "https://www.doctorwholocations.net/locations/ruevielledutemple",
    "lat": 48.858056,
    "lng": 2.358056,
    "serials": [
      "City of Death [2 May 1979]"
    ]
  },
  {
    "name": "Avenue des Champs Elysées",
    "url": "https://www.doctorwholocations.net/locations/avenuedeschampselysees",
    "lat": 48.8675,
    "lng": 2.314444,
    "serials": [
      "City of Death [3 May 1979]"
    ]
  },
  {
    "name": "Dupleix Métro Station",
    "url": "https://www.doctorwholocations.net/locations/dupleixmetrostation",
    "lat": 48.850278,
    "lng": 2.293333,
    "serials": [
      "City of Death [3 May 1979]"
    ]
  },
  {
    "name": "Paris Metro Line 6",
    "url": "https://www.doctorwholocations.net/locations/parismetroline6",
    "lat": 48.855556,
    "lng": 2.2875,
    "serials": [
      "City of Death [3 May 1979]: The Doctor and Romana travel on the Metro"
    ]
  },
  {
    "name": "Trocadéro Metro Station",
    "url": "https://www.doctorwholocations.net/locations/trocaderometrostation",
    "lat": 48.863056,
    "lng": 2.286944,
    "serials": [
      "City of Death [3 May 1979]"
    ]
  },
  {
    "name": "Boissière Metro Station",
    "url": "https://www.doctorwholocations.net/locations/boissieremetrostation",
    "lat": 48.867222,
    "lng": 2.290278,
    "serials": [
      "City of Death [3 May 1979]"
    ]
  },
  {
    "name": "Avenue Kléber",
    "url": "https://www.doctorwholocations.net/locations/avenuekleber",
    "lat": 48.866667,
    "lng": 2.29,
    "serials": [
      "City of Death [3 May 1979]"
    ]
  },
  {
    "name": "Place de la Concorde",
    "url": "https://www.doctorwholocations.net/locations/placedelaconcorde",
    "lat": 48.865278,
    "lng": 2.321111,
    "serials": [
      "City of Death [3 May 1979]"
    ]
  },
  {
    "name": "Louvre Museum",
    "url": "https://www.doctorwholocations.net/locations/louvremuseum",
    "lat": 48.861111,
    "lng": 2.338889,
    "serials": [
      "City of Death [3 May 1979]"
    ]
  },
  {
    "name": "Rue de Rivoli",
    "url": "https://www.doctorwholocations.net/locations/ruederivoli",
    "lat": 48.865278,
    "lng": 2.327222,
    "serials": [
      "City of Death [3 May 1979]"
    ]
  },
  {
    "name": "Cathédrale Saint-Vladimir-le-Grand",
    "url": "https://www.doctorwholocations.net/locations/cathedralesaintvladimirlegrand",
    "lat": 48.854444,
    "lng": 2.330556,
    "serials": [
      "City of Death [3 May 1979] (Garden): The Doctor, Romana and Duggan head to the TARDIS"
    ]
  },
  {
    "name": "Rue de Saint Peres",
    "url": "https://www.doctorwholocations.net/locations/ruedessaintsperes",
    "lat": 48.854444,
    "lng": 2.330556,
    "serials": [
      "City of Death [3 May 1979]: The Doctor, Romana and Duggan head to the TARDIS"
    ]
  },
  {
    "name": "Boulevard de Grenelle",
    "url": "https://www.doctorwholocations.net/locations/boulevarddegrenelle",
    "lat": 48.848889,
    "lng": 2.298056,
    "serials": [
      "City of Death [3 May 1979]: The Doctor and Romana on the way to the Louvre"
    ]
  },
  {
    "name": "Quai de Montebello",
    "url": "https://www.doctorwholocations.net/locations/quaidemontebello",
    "lat": 48.852222,
    "lng": 2.348056,
    "serials": [
      "City of Death [3 May 1979]: Duggan follows the Doctor and Romana"
    ]
  },
  {
    "name": "Rue Saint-Julien-le-Pauvre",
    "url": "https://www.doctorwholocations.net/locations/ruesaintjulienlepauvre",
    "lat": 48.852222,
    "lng": 2.346944,
    "serials": [
      "City of Death [3 May 1979]: Duggan and Romana head back to the chateau"
    ]
  },
  {
    "name": "Binnegar Heath Sand Pit",
    "url": "https://www.doctorwholocations.net/locations/binnegarheathsandpit",
    "lat": 50.688611,
    "lng": -2.16,
    "serials": [
      "Destiny of the Daleks [12-13 Jun 1979]"
    ]
  },
  {
    "name": "The Backs",
    "url": "https://www.doctorwholocations.net/locations/backsrivercam",
    "lat": 52.204167,
    "lng": 0.113889,
    "serials": [
      "The Five Doctors [15 Oct 1979 (Shada)]: The Doctor and Romana are picked up by the Time Scoop",
      "Shada [15 Oct 1979]"
    ]
  },
  {
    "name": "Botolph Lane",
    "url": "https://www.doctorwholocations.net/locations/botolphlane",
    "lat": 52.202222,
    "lng": 0.118611,
    "serials": [
      "Shada [15 Oct 1979]"
    ]
  },
  {
    "name": "Clare Bridge",
    "url": "https://www.doctorwholocations.net/locations/clarebridge",
    "lat": 52.204722,
    "lng": 0.113889,
    "serials": [
      "Shada [15 Oct 1979]"
    ]
  },
  {
    "name": "King's Parade",
    "url": "https://www.doctorwholocations.net/locations/kingsparade",
    "lat": 52.204722,
    "lng": 0.1175,
    "serials": [
      "Shada [15 Oct 1979]"
    ]
  },
  {
    "name": "St Edward's Passage",
    "url": "https://www.doctorwholocations.net/locations/stedwardspassage",
    "lat": 52.204444,
    "lng": 0.117778,
    "serials": [
      "Shada [15 Oct 1979]"
    ]
  },
  {
    "name": "Trumpington Street",
    "url": "https://www.doctorwholocations.net/locations/trumpingtonstreet",
    "lat": 52.201944,
    "lng": 0.117778,
    "serials": [
      "Shada [15 Oct 1979]"
    ]
  },
  {
    "name": "High Street",
    "url": "https://www.doctorwholocations.net/locations/highstreetgrantchester",
    "lat": 52.18,
    "lng": 0.094444,
    "serials": [
      "Shada [16 Oct 1979]"
    ]
  },
  {
    "name": "Grantchester Meadows",
    "url": "https://www.doctorwholocations.net/locations/grantchestermeadows",
    "lat": 52.180278,
    "lng": 0.097222,
    "serials": [
      "Shada [16 Oct 1979]"
    ]
  },
  {
    "name": "Emmanuel College",
    "url": "https://www.doctorwholocations.net/locations/emmanuelcollege",
    "lat": 52.203611,
    "lng": 0.123889,
    "serials": [
      "Shada [17 Oct 1979]"
    ]
  },
  {
    "name": "Free School Lane",
    "url": "https://www.doctorwholocations.net/locations/freeschoollane",
    "lat": 52.2025,
    "lng": 0.119167,
    "serials": [
      "Shada [17 Oct 1979]"
    ]
  },
  {
    "name": "Blackmoor Head Yard",
    "url": "https://www.doctorwholocations.net/locations/blackmoorheadyard",
    "lat": 52.208889,
    "lng": 0.118056,
    "serials": [
      "The Five Doctors [19 Oct 1979 (Shada)]: The Doctor and Romana are released from the Time Scoop",
      "Shada [19 Oct 1979]"
    ]
  },
  {
    "name": "Bridge Street",
    "url": "https://www.doctorwholocations.net/locations/bridgestreet",
    "lat": 52.208611,
    "lng": 0.117778,
    "serials": [
      "Shada [19 Oct 1979]"
    ]
  },
  {
    "name": "Garret Hostel Lane",
    "url": "https://www.doctorwholocations.net/locations/garrethostellane",
    "lat": 52.205833,
    "lng": 0.113889,
    "serials": [
      "Shada [19 Oct 1979]"
    ]
  },
  {
    "name": "Portugal Place",
    "url": "https://www.doctorwholocations.net/locations/portugalplace",
    "lat": 52.209167,
    "lng": 0.118333,
    "serials": [
      "Shada [19 Oct 1979]"
    ]
  },
  {
    "name": "Portugal Street",
    "url": "https://www.doctorwholocations.net/locations/portugalstreet",
    "lat": 52.209722,
    "lng": 0.118889,
    "serials": [
      "Shada [19 Oct 1979]"
    ]
  },
  {
    "name": "Trinity Lane",
    "url": "https://www.doctorwholocations.net/locations/trinitylane",
    "lat": 52.205556,
    "lng": 0.116111,
    "serials": [
      "Shada [19 Oct 1979]"
    ]
  },
  {
    "name": "Brighton Beach",
    "url": "https://www.doctorwholocations.net/locations/brightonbeach",
    "lat": 50.819167,
    "lng": -0.144167,
    "serials": [
      "The Leisure Hive [20-21 Mar 1980]: The Beach"
    ]
  },
  {
    "name": "Burnham Beeches",
    "url": "https://www.doctorwholocations.net/locations/burnhambeeches",
    "lat": 51.553889,
    "lng": -0.629167,
    "serials": [
      "State of Decay [30 Apr - 2 May 1980]: The Forest"
    ]
  },
  {
    "name": "Lucas CAV",
    "url": "https://www.doctorwholocations.net/locations/lucascav",
    "lat": 51.502778,
    "lng": -0.2525,
    "serials": [
      "State of Decay [2 May 1980]: Inspection Shaft"
    ]
  },
  {
    "name": "Black Park",
    "url": "https://www.doctorwholocations.net/locations/blackpark",
    "lat": 51.538333,
    "lng": -0.548056,
    "serials": [
      "Battlefield [6 May 1989]: Helicopter in flight/crashing scenes.",
      "Full Circle [23-25 Jul 1980]: Alzarius",
      "The Visitation [5-7 May 1981]"
    ]
  },
  {
    "name": "Powis Castle",
    "url": "https://www.doctorwholocations.net/locations/powiscastle",
    "lat": 52.645556,
    "lng": -3.158611,
    "serials": [
      "Warriors Gate [1 Sep 1980 (stills)]"
    ]
  },
  {
    "name": "Ursula Street",
    "url": "https://www.doctorwholocations.net/locations/ursulastreet",
    "lat": 51.473333,
    "lng": -0.168611,
    "serials": [
      "Logopolis [16 Dec 1980]"
    ]
  },
  {
    "name": "Albert Bridge",
    "url": "https://www.doctorwholocations.net/locations/albertbridge",
    "lat": 51.482778,
    "lng": -0.166944,
    "serials": [
      "Logopolis [16 Dec 1980]"
    ]
  },
  {
    "name": "Cadogan Pier",
    "url": "https://www.doctorwholocations.net/locations/cadoganpier",
    "lat": 51.482778,
    "lng": -0.166389,
    "serials": [
      "Logopolis [16 Dec 1980]"
    ]
  },
  {
    "name": "Crowsley Park BBC Receiving Station",
    "url": "https://www.doctorwholocations.net/locations/crowsleypark",
    "lat": 51.512778,
    "lng": -0.953611,
    "serials": [
      "Logopolis [18 Dec 1980]"
    ]
  },
  {
    "name": "Amersham Road (A413)",
    "url": "https://www.doctorwholocations.net/locations/amershamroad",
    "lat": 51.579167,
    "lng": -0.535833,
    "serials": [
      "Logopolis [22 Dec 1980]"
    ]
  },
  {
    "name": "Tithe Barn",
    "url": "https://www.doctorwholocations.net/locations/tithebarn",
    "lat": 51.548889,
    "lng": -0.811667,
    "serials": [
      "The Visitation [8 May 1981]"
    ]
  },
  {
    "name": "Sussex Police Training Centre (Crowborough)",
    "url": "https://www.doctorwholocations.net/locations/crowboroughpolicetrainingcentre",
    "lat": 51.0425,
    "lng": 0.104444,
    "serials": [
      "Castrovalva [1 Sep 1981]: A newly regenerated Doctor is rescured from the Pharos Project."
    ]
  },
  {
    "name": "Buckhurst Park (Woods)",
    "url": "https://www.doctorwholocations.net/locations/buckhurstparkwoods",
    "lat": 51.095,
    "lng": 0.137222,
    "serials": [
      "Castrovalva [2-3 Sep 1981]: The TARDIS lands in woods surrounding Castrovalva."
    ]
  },
  {
    "name": "Harrison's Rocks",
    "url": "https://www.doctorwholocations.net/locations/harrisonsrocks",
    "lat": 51.1,
    "lng": 0.187778,
    "serials": [
      "Castrovalva [4 Sep 1981]: The Doctor climbs up towards Castrovalva."
    ]
  },
  {
    "name": "Buckinghamshire Railway Centre",
    "url": "https://www.doctorwholocations.net/locations/buckinghamshirerailwaycentre",
    "lat": 51.864444,
    "lng": -0.928611,
    "serials": [
      "Black Orchid [5 Oct 1981]: The TARDIS materialises at a railway station."
    ]
  },
  {
    "name": "Quainton Road",
    "url": "https://www.doctorwholocations.net/locations/quaintonroad",
    "lat": 51.848333,
    "lng": -0.920833,
    "serials": [
      "Black Orchid [5 Oct 1981]: The village police station"
    ]
  },
  {
    "name": "Buckhurst House",
    "url": "https://www.doctorwholocations.net/locations/buckhursthouse",
    "lat": 51.094444,
    "lng": 0.142222,
    "serials": [
      "Black Orchid [6-8 Oct 1981]: Cranleigh Hall"
    ]
  },
  {
    "name": "Withyham Cricket Club",
    "url": "https://www.doctorwholocations.net/locations/withyhamcricketclub",
    "lat": 51.098889,
    "lng": 0.139167,
    "serials": [
      "Black Orchid [9 Oct 1981]: The Doctor helps the Cranleigh Hall team to victory at cricket!"
    ]
  },
  {
    "name": "Sheepscombe",
    "url": "https://www.doctorwholocations.net/locations/sheepscombe",
    "lat": 51.791111,
    "lng": -2.157778,
    "serials": [
      "K9 and Company [12 Nov 1981]: A local wall(!)"
    ]
  },
  {
    "name": "Miserden Park Estate",
    "url": "https://www.doctorwholocations.net/locations/miserdenparkestate",
    "lat": 51.781389,
    "lng": -2.085556,
    "serials": [
      "K9 and Company [12-14 Nov 1981]: Local roads"
    ]
  },
  {
    "name": "Miserden",
    "url": "https://www.doctorwholocations.net/locations/miserden",
    "lat": 51.778056,
    "lng": -2.092222,
    "serials": [
      "K9 and Company [16 Nov 1981]: The village of Morton Harwood."
    ]
  },
  {
    "name": "Miserden Nurseries",
    "url": "https://www.doctorwholocations.net/locations/miserdennurseries",
    "lat": 51.7775,
    "lng": -2.09,
    "serials": [
      "K9 and Company [13 Nov 1981]: The manor nurseries"
    ]
  },
  {
    "name": "Wishanger Farm",
    "url": "https://www.doctorwholocations.net/locations/wishangerfarm",
    "lat": 51.784167,
    "lng": -2.116111,
    "serials": [
      "K9 and Company [12,14 Nov 1981]: Sarah drives along local roads"
    ]
  },
  {
    "name": "Wishanger Lane",
    "url": "https://www.doctorwholocations.net/locations/wishangerlane",
    "lat": 51.783611,
    "lng": -2.116111,
    "serials": [
      "K9 and Company [12,14 Nov 1981]: Sarah swerves to avoid a tractor"
    ]
  },
  {
    "name": "Miserden (village junction)",
    "url": "https://www.doctorwholocations.net/locations/miserdenjunction",
    "lat": 51.781667,
    "lng": -2.105,
    "serials": [
      "K9 and Company [12,14 Nov 1981]: Sarah drives along local roads"
    ]
  },
  {
    "name": "Parish Church",
    "url": "https://www.doctorwholocations.net/locations/parishchurchwoodchester",
    "lat": 51.726389,
    "lng": -2.233333,
    "serials": [
      "K9 and Company [15 Nov 1981]: The worshippers of Hecate meet"
    ]
  },
  {
    "name": "Barnsley House",
    "url": "https://www.doctorwholocations.net/locations/barnsleyhouse",
    "lat": 51.742778,
    "lng": -1.89,
    "serials": [
      "K9 and Company [16 Nov 1981]: Aunt Lavinia's house"
    ]
  },
  {
    "name": "Bear Inn",
    "url": "https://www.doctorwholocations.net/locations/bearinn",
    "lat": 51.753056,
    "lng": -2.141389,
    "serials": [
      "K9 and Company [17 Nov 1981]: Sarah typing outside a pub."
    ]
  },
  {
    "name": "Cheltenham Road",
    "url": "https://www.doctorwholocations.net/locations/cheltenhamroad",
    "lat": 51.755278,
    "lng": -2.141389,
    "serials": [
      "K9 and Company [17 Nov 1981]: The village police station"
    ]
  },
  {
    "name": "Heathrow Airport",
    "url": "https://www.doctorwholocations.net/locations/heathrowairport",
    "lat": 51.470278,
    "lng": -0.457222,
    "serials": [
      "Time-Flight [6-7, 11 Jan 1982]"
    ]
  },
  {
    "name": "Muntplein",
    "url": "https://www.doctorwholocations.net/locations/muntplein",
    "lat": 52.366944,
    "lng": 4.893333,
    "serials": [
      "Arc of Infinity [3 May 1982]: Robin meets Colin, who's just phoned his cousin."
    ]
  },
  {
    "name": "Schiphol Airport",
    "url": "https://www.doctorwholocations.net/locations/schipholairport",
    "lat": 52.3075,
    "lng": 4.758056,
    "serials": [
      "Arc of Infinity [3 May 1982]: Robin meets Tegan at the airport."
    ]
  },
  {
    "name": "Herengracht",
    "url": "https://www.doctorwholocations.net/locations/herengracht",
    "lat": 52.376667,
    "lng": 4.889722,
    "serials": [
      "Arc of Infinity [4 May 1982]: The Doctor and Nyssa bump into a woman, and later Omega tries to hide from them."
    ]
  },
  {
    "name": "Singel",
    "url": "https://www.doctorwholocations.net/locations/singel",
    "lat": 52.376111,
    "lng": 4.891111,
    "serials": [
      "Arc of Infinity [4 May 1982]: The Doctor and Nyssa search for a hostel."
    ]
  },
  {
    "name": "Leidseplein",
    "url": "https://www.doctorwholocations.net/locations/leidseplein",
    "lat": 52.363611,
    "lng": 4.8825,
    "serials": [
      "Arc of Infinity [4 May 1982]: The Doctor checks the telephone directory for hostels."
    ]
  },
  {
    "name": "Lijnbaansgracht",
    "url": "https://www.doctorwholocations.net/locations/lijnbaansgracht",
    "lat": 52.364722,
    "lng": 4.881389,
    "serials": [
      "Arc of Infinity [4 May 1982]: Tegan tries to file a missing person's report, without success."
    ]
  },
  {
    "name": "Nieuwezijds Voorburgwal",
    "url": "https://www.doctorwholocations.net/locations/nieuwezijdsvoorburgwal",
    "lat": 52.374722,
    "lng": 4.891389,
    "serials": [
      "Arc of Infinity [4 May 1982]: Omega being chased by the Doctor and Nyssa."
    ]
  },
  {
    "name": "Sint Nicolaasstraat",
    "url": "https://www.doctorwholocations.net/locations/sintnicolaasstraat",
    "lat": 52.374722,
    "lng": 4.893333,
    "serials": [
      "Arc of Infinity [4 May 1982]: A chef is knocked down by a fleeing Omega."
    ]
  },
  {
    "name": "Zandpad",
    "url": "https://www.doctorwholocations.net/locations/zandpad",
    "lat": 52.361111,
    "lng": 4.878611,
    "serials": [
      "Arc of Infinity [4 May 1982]: A Youth Hostel."
    ]
  },
  {
    "name": "Amstelveld",
    "url": "https://www.doctorwholocations.net/locations/amstelveld",
    "lat": 52.362222,
    "lng": 4.8975,
    "serials": [
      "Arc of Infinity [5 May 1982]: Omega listens to an organ playing in the square."
    ]
  },
  {
    "name": "Middenweg",
    "url": "https://www.doctorwholocations.net/locations/middenweg",
    "lat": 52.351389,
    "lng": 4.933889,
    "serials": [
      "Arc of Infinity [5 May 1982]: Outside the house."
    ]
  },
  {
    "name": "Frankendael House",
    "url": "https://www.doctorwholocations.net/locations/frankendaelhouse",
    "lat": 52.351111,
    "lng": 4.933611,
    "serials": [
      "Arc of Infinity [5 May 1982]: Robin knows a good place to stay ..."
    ]
  },
  {
    "name": "Prinsengracht",
    "url": "https://www.doctorwholocations.net/locations/prinsengracht",
    "lat": 52.361944,
    "lng": 4.898889,
    "serials": [
      "Arc of Infinity [5 May 1982]: A flower seller is frightened when confronted by Omega."
    ]
  },
  {
    "name": "Amstel",
    "url": "https://www.doctorwholocations.net/locations/amstel",
    "lat": 52.363333,
    "lng": 4.901389,
    "serials": [
      "Arc of Infinity [6 May 1982]: Omega hides in a doorway to avoid being found."
    ]
  },